<?xml version="1.0" encoding="utf-8"?>
<sts>
  <s>
    <name>'s-Hertogenbosch</name>
    <id>ht</id>
    <c>NL</c>
    <t>2</t>
    <lat>51.69048</lat>
    <lon>5.29362</lon>
    <Syns>
      <Sy>Hertogenbosch ('s)</Sy>
      <Sy>Den Bosch</Sy>
    </Syns>
  </s>
  <s>
    <name>'s-Hertogenbosch Oost</name>
    <id>hto</id>
    <c>NL</c>
    <t>7</t>
    <lat>51.700553894043</lat>
    <lon>5.3183331489563</lon>
    <Syns>
      <Sy>Hertogenbosch Oost ('s)</Sy>
      <Sy>Den Bosch Oost</Sy>
      <Sy>Dn Bosch O</Sy>
      <Sy>Hertogenbosch O.</Sy>
    </Syns>
  </s>
  <s>
    <name>'t Harde</name>
    <id>hde</id>
    <c>NL</c>
    <t>7</t>
    <lat>52.4091682</lat>
    <lon>5.893611</lon>
    <Syns>
      <Sy>Harde ('t)</Sy>
    </Syns>
  </s>
  <s>
    <name>Aalten</name>
    <id>atn</id>
    <c>NL</c>
    <t>7</t>
    <lat>51.9213265245505</lat>
    <lon>6.57862722873687</lon>
    <Syns />
  </s>
  <s>
    <name>Abcoude</name>
    <id>ac</id>
    <c>NL</c>
    <t>7</t>
    <lat>52.2785</lat>
    <lon>4.977</lon>
    <Syns />
  </s>
  <s>
    <name>Akkrum</name>
    <id>akm</id>
    <c>NL</c>
    <t>7</t>
    <lat>53.0463905334473</lat>
    <lon>5.84361124038696</lon>
    <Syns />
  </s>
  <s>
    <name>Alkmaar</name>
    <id>amr</id>
    <c>NL</c>
    <t>2</t>
    <lat>52.6377792358398</lat>
    <lon>4.73972225189209</lon>
    <Syns />
  </s>
  <s>
    <name>Alkmaar Noord</name>
    <id>amrn</id>
    <c>NL</c>
    <t>7</t>
    <lat>52.6438903808594</lat>
    <lon>4.76416683197022</lon>
    <Syns />
  </s>
  <s>
    <name>Almelo</name>
    <id>aml</id>
    <c>NL</c>
    <t>2</t>
    <lat>52.3580551147461</lat>
    <lon>6.65388870239258</lon>
    <Syns />
  </s>
  <s>
    <name>Almelo de Riet</name>
    <id>amri</id>
    <c>NL</c>
    <t>7</t>
    <lat>52.3419456481934</lat>
    <lon>6.66666650772095</lon>
    <Syns>
      <Sy>de Riet</Sy>
    </Syns>
  </s>
  <s>
    <name>Almere Buiten</name>
    <id>almb</id>
    <c>NL</c>
    <t>7</t>
    <lat>52.3941650390625</lat>
    <lon>5.2780556678772</lon>
    <Syns>
      <Sy>Buiten</Sy>
    </Syns>
  </s>
  <s>
    <name>Almere Centrum</name>
    <id>alm</id>
    <c>NL</c>
    <t>2</t>
    <lat>52.37503</lat>
    <lon>5.21764</lon>
    <Syns>
      <Sy>Almere C.</Sy>
    </Syns>
  </s>
  <s>
    <name>Almere Muziekwijk</name>
    <id>almm</id>
    <c>NL</c>
    <t>7</t>
    <lat>52.3675003051758</lat>
    <lon>5.19027757644653</lon>
    <Syns>
      <Sy>Muziekwijk</Sy>
    </Syns>
  </s>
  <s>
    <name>Almere Oostvaarders</name>
    <id>almo</id>
    <c>NL</c>
    <t>7</t>
    <lat>52.4033317565918</lat>
    <lon>5.30055570602417</lon>
    <Syns>
      <Sy>Oostvaard</Sy>
      <Sy>Oostvaarders</Sy>
    </Syns>
  </s>
  <s>
    <name>Almere Parkwijk</name>
    <id>almp</id>
    <c>NL</c>
    <t>7</t>
    <lat>52.3766670227051</lat>
    <lon>5.24472236633301</lon>
    <Syns>
      <Sy>Parkwijk</Sy>
    </Syns>
  </s>
  <s>
    <name>Almere Poort</name>
    <id>ampo</id>
    <c>NL</c>
    <t>7</t>
    <lat>52.342778</lat>
    <lon>5.151944</lon>
    <Syns>
      <Sy>Almere Prt</Sy>
    </Syns>
  </s>
  <s>
    <name>Alphen a/d Rijn</name>
    <id>apn</id>
    <c>NL</c>
    <t>2</t>
    <lat>52.1244430541992</lat>
    <lon>4.65777778625488</lon>
    <Syns>
      <Sy>Alphen aan den Rijn</Sy>
    </Syns>
  </s>
  <s>
    <name>Amersfoort</name>
    <id>amf</id>
    <c>NL</c>
    <t>2</t>
    <lat>52.1538887023926</lat>
    <lon>5.37055540084839</lon>
    <Syns />
  </s>
  <s>
    <name>Amersfoort Schothorst</name>
    <id>amfs</id>
    <c>NL</c>
    <t>7</t>
    <lat>52.1748221374512</lat>
    <lon>5.40388870239258</lon>
    <Syns>
      <Sy>Schothorst</Sy>
    </Syns>
  </s>
  <s>
    <name>Amersfoort Vathorst</name>
    <id>avat</id>
    <c>NL</c>
    <t>7</t>
    <lat>52.1927795410156</lat>
    <lon>5.43388891220093</lon>
    <Syns>
      <Sy>Vathorst</Sy>
    </Syns>
  </s>
  <s>
    <name>Amsterdam Amstel</name>
    <id>asa</id>
    <c>NL</c>
    <t>3</t>
    <lat>52.3466682434082</lat>
    <lon>4.91777801513672</lon>
    <Syns>
      <Sy>Amstel</Sy>
    </Syns>
  </s>
  <s>
    <name>Amsterdam Bijlmer ArenA</name>
    <id>asb</id>
    <c>NL</c>
    <t>6</t>
    <lat>52.3122215270996</lat>
    <lon>4.94694423675537</lon>
    <Syns>
      <Sy>Bijlmer A</Sy>
      <Sy>Bijlmer ArenA</Sy>
    </Syns>
  </s>
  <s>
    <name>Amsterdam Centraal</name>
    <id>asd</id>
    <c>NL</c>
    <t>1</t>
    <lat>52.3788871765137</lat>
    <lon>4.90027761459351</lon>
    <Syns>
      <Sy>Amsterdam CS</Sy>
    </Syns>
  </s>
  <s>
    <name>Amsterdam Holendrecht</name>
    <id>ashd</id>
    <c>NL</c>
    <t>7</t>
    <lat>52.29844</lat>
    <lon>4.95972</lon>
    <Syns>
      <Sy>Holendrcht</Sy>
      <Sy>Holendrecht</Sy>
    </Syns>
  </s>
  <s>
    <name>Amsterdam Lelylaan</name>
    <id>asdl</id>
    <c>NL</c>
    <t>7</t>
    <lat>52.3577766418457</lat>
    <lon>4.83388900756836</lon>
    <Syns>
      <Sy>Lelylaan</Sy>
    </Syns>
  </s>
  <s>
    <name>Amsterdam Muiderpoort</name>
    <id>asdm</id>
    <c>NL</c>
    <t>7</t>
    <lat>52.3605537414551</lat>
    <lon>4.93111133575439</lon>
    <Syns>
      <Sy>Muiderprt</Sy>
      <Sy>Muiderpoort</Sy>
    </Syns>
  </s>
  <s>
    <name>Amsterdam RAI</name>
    <id>rai</id>
    <c>NL</c>
    <t>7</t>
    <lat>52.3372230529785</lat>
    <lon>4.89027786254883</lon>
    <Syns>
      <Sy>RAI</Sy>
    </Syns>
  </s>
  <s>
    <name>Amsterdam Science Park</name>
    <id>assp</id>
    <c>NL</c>
    <t>7</t>
    <lat>52.35526</lat>
    <lon>4.94651</lon>
    <Syns>
      <Sy>Scienceprk</Sy>
      <Sy>Science Park</Sy>
    </Syns>
  </s>
  <s>
    <name>Amsterdam Sloterdijk</name>
    <id>ass</id>
    <c>NL</c>
    <t>2</t>
    <lat>52.3888893127441</lat>
    <lon>4.83777761459351</lon>
    <Syns>
      <Sy>Sloterdijk</Sy>
    </Syns>
  </s>
  <s>
    <name>Amsterdam Zuid</name>
    <id>asdz</id>
    <c>NL</c>
    <t>3</t>
    <lat>52.3388900756836</lat>
    <lon>4.871666431427</lon>
    <Syns>
      <Sy>Amsterdm Z</Sy>
    </Syns>
  </s>
  <s>
    <name>Anna Paulowna</name>
    <id>ana</id>
    <c>NL</c>
    <t>7</t>
    <lat>52.8672218322754</lat>
    <lon>4.81111097335815</lon>
    <Syns />
  </s>
  <s>
    <name>Apeldoorn</name>
    <id>apd</id>
    <c>NL</c>
    <t>2</t>
    <lat>52.2091674804687</lat>
    <lon>5.97027778625488</lon>
    <Syns />
  </s>
  <s>
    <name>Apeldoorn De Maten</name>
    <id>apdm</id>
    <c>NL</c>
    <t>7</t>
    <lat>52.2052764892578</lat>
    <lon>6.00055551528931</lon>
    <Syns>
      <Sy>De Maten</Sy>
    </Syns>
  </s>
  <s>
    <name>Apeldoorn Osseveld</name>
    <id>apdo</id>
    <c>NL</c>
    <t>7</t>
    <lat>52.2152786254883</lat>
    <lon>6.00444459915161</lon>
    <Syns>
      <Sy>Osseveld</Sy>
    </Syns>
  </s>
  <s>
    <name>Appingedam</name>
    <id>apg</id>
    <c>NL</c>
    <t>7</t>
    <lat>53.3258135</lat>
    <lon>6.8619577</lon>
    <Syns />
  </s>
  <s>
    <name>Arkel</name>
    <id>akl</id>
    <c>NL</c>
    <t>7</t>
    <lat>51.8719444274902</lat>
    <lon>4.99277782440186</lon>
    <Syns />
  </s>
  <s>
    <name>Arnemuiden</name>
    <id>arn</id>
    <c>NL</c>
    <t>7</t>
    <lat>51.5016670227051</lat>
    <lon>3.66916656494141</lon>
    <Syns />
  </s>
  <s>
    <name>Arnhem Centraal</name>
    <id>ah</id>
    <c>NL</c>
    <t>2</t>
    <lat>51.9850006103516</lat>
    <lon>5.89916658401489</lon>
    <Syns>
      <Sy>Arnhem C.</Sy>
    </Syns>
  </s>
  <s>
    <name>Arnhem Presikhaaf</name>
    <id>ahpr</id>
    <c>NL</c>
    <t>7</t>
    <lat>51.9880561828613</lat>
    <lon>5.94388866424561</lon>
    <Syns>
      <Sy>Presikhaaf</Sy>
    </Syns>
  </s>
  <s>
    <name>Arnhem Velperpoort</name>
    <id>ahp</id>
    <c>NL</c>
    <t>7</t>
    <lat>51.985279083252</lat>
    <lon>5.91944456100464</lon>
    <Syns>
      <Sy>Velperprt</Sy>
      <Sy>Velperpoort</Sy>
    </Syns>
  </s>
  <s>
    <name>Arnhem Zuid</name>
    <id>ahz</id>
    <c>NL</c>
    <t>7</t>
    <lat>51.9550018310547</lat>
    <lon>5.85194444656372</lon>
    <Syns />
  </s>
  <s>
    <name>Assen</name>
    <id>asn</id>
    <c>NL</c>
    <t>2</t>
    <lat>52.9916648864746</lat>
    <lon>6.57083320617676</lon>
    <Syns />
  </s>
  <s>
    <name>Baarn</name>
    <id>brn</id>
    <c>NL</c>
    <t>6</t>
    <lat>52.2083320617676</lat>
    <lon>5.28083324432373</lon>
    <Syns />
  </s>
  <s>
    <name>Bad Nieuweschans</name>
    <id>nsch</id>
    <c>NL</c>
    <t>6</t>
    <lat>53.1844</lat>
    <lon>7.19937</lon>
    <Syns>
      <Sy>Nieuweschans</Sy>
      <Sy>Nweschans</Sy>
    </Syns>
  </s>
  <s>
    <name>Baflo</name>
    <id>bf</id>
    <c>NL</c>
    <t>7</t>
    <lat>53.3608969</lat>
    <lon>6.5185581</lon>
    <Syns />
  </s>
  <s>
    <name>Barendrecht</name>
    <id>brd</id>
    <c>NL</c>
    <t>7</t>
    <lat>51.8547210693359</lat>
    <lon>4.5533332824707</lon>
    <Syns>
      <Sy>Barendrcht</Sy>
    </Syns>
  </s>
  <s>
    <name>Barneveld Centrum</name>
    <id>bnc</id>
    <c>NL</c>
    <t>7</t>
    <lat>52.1399993896484</lat>
    <lon>5.59027767181396</lon>
    <Syns>
      <Sy>Barnevld C</Sy>
      <Sy>Barneveld C.</Sy>
    </Syns>
  </s>
  <s>
    <name>Barneveld Noord</name>
    <id>bnn</id>
    <c>NL</c>
    <t>7</t>
    <lat>52.1613883972168</lat>
    <lon>5.59805536270142</lon>
    <Syns>
      <Sy>Barnevld N</Sy>
    </Syns>
  </s>
  <s>
    <name>Barneveld Zuid</name>
    <id>bnz</id>
    <c>NL</c>
    <t>7</t>
    <lat>52.128853</lat>
    <lon>5.60246</lon>
    <Syns>
      <Sy>Barnevld Z</Sy>
    </Syns>
  </s>
  <s>
    <name>Bedum</name>
    <id>bdm</id>
    <c>NL</c>
    <t>7</t>
    <lat>53.3068857</lat>
    <lon>6.593054</lon>
    <Syns />
  </s>
  <s>
    <name>Beek-Elsloo</name>
    <id>bk</id>
    <c>NL</c>
    <t>7</t>
    <lat>50.9474983215332</lat>
    <lon>5.78666687011719</lon>
    <Syns />
  </s>
  <s>
    <name>Beesd</name>
    <id>bsd</id>
    <c>NL</c>
    <t>7</t>
    <lat>51.8994445800781</lat>
    <lon>5.19444465637207</lon>
    <Syns />
  </s>
  <s>
    <name>Beilen</name>
    <id>bl</id>
    <c>NL</c>
    <t>7</t>
    <lat>52.8547210693359</lat>
    <lon>6.52111101150513</lon>
    <Syns />
  </s>
  <s>
    <name>Bergen op Zoom</name>
    <id>bgn</id>
    <c>NL</c>
    <t>7</t>
    <lat>51.4938888549805</lat>
    <lon>4.29611110687256</lon>
    <Syns>
      <Sy>Bergen opZ</Sy>
    </Syns>
  </s>
  <s>
    <name>Best</name>
    <id>bet</id>
    <c>NL</c>
    <t>7</t>
    <lat>51.5099983215332</lat>
    <lon>5.38916683197022</lon>
    <Syns />
  </s>
  <s>
    <name>Beverwijk</name>
    <id>bv</id>
    <c>NL</c>
    <t>3</t>
    <lat>52.4783325195313</lat>
    <lon>4.65666675567627</lon>
    <Syns />
  </s>
  <s>
    <name>Bilthoven</name>
    <id>bhv</id>
    <c>NL</c>
    <t>7</t>
    <lat>52.1300010681152</lat>
    <lon>5.20388889312744</lon>
    <Syns />
  </s>
  <s>
    <name>Blerick</name>
    <id>br</id>
    <c>NL</c>
    <t>7</t>
    <lat>51.372501373291</lat>
    <lon>6.15500020980835</lon>
    <Syns />
  </s>
  <s>
    <name>Bloemendaal</name>
    <id>bll</id>
    <c>NL</c>
    <t>7</t>
    <lat>52.404167175293</lat>
    <lon>4.62750005722046</lon>
    <Syns>
      <Sy>Bloemendl</Sy>
    </Syns>
  </s>
  <s>
    <name>Bodegraven</name>
    <id>bdg</id>
    <c>NL</c>
    <t>7</t>
    <lat>52.0813903808594</lat>
    <lon>4.7461109161377</lon>
    <Syns />
  </s>
  <s>
    <name>Borne</name>
    <id>bn</id>
    <c>NL</c>
    <t>7</t>
    <lat>52.2988891601562</lat>
    <lon>6.74805545806885</lon>
    <Syns />
  </s>
  <s>
    <name>Boskoop</name>
    <id>bsk</id>
    <c>NL</c>
    <t>7</t>
    <lat>52.0777778625488</lat>
    <lon>4.64694452285767</lon>
    <Syns />
  </s>
  <s>
    <name>Boven-Hardinxveld</name>
    <id>bhdv</id>
    <c>NL</c>
    <t>7</t>
    <lat>51.832222</lat>
    <lon>4.878056</lon>
    <Syns>
      <Sy>Boven-Hardinxv.</Sy>
    </Syns>
  </s>
  <s>
    <name>Bovenkarspel Flora</name>
    <id>bkf</id>
    <c>NL</c>
    <t>7</t>
    <lat>52.6961097717285</lat>
    <lon>5.25277757644653</lon>
    <Syns>
      <Sy>Bovenk Flo</Sy>
      <Sy>Bovenkarspel Fl.</Sy>
    </Syns>
  </s>
  <s>
    <name>Bovenkarspel-Grootebroek</name>
    <id>bkg</id>
    <c>NL</c>
    <t>7</t>
    <lat>52.6949996948242</lat>
    <lon>5.23777770996094</lon>
    <Syns>
      <Sy>Bovenk-Gr</Sy>
      <Sy>Bovenkarspel-Gr.</Sy>
    </Syns>
  </s>
  <s>
    <name>Boxmeer</name>
    <id>bmr</id>
    <c>NL</c>
    <t>6</t>
    <lat>51.6445217676531</lat>
    <lon>5.93903303146362</lon>
    <Syns />
  </s>
  <s>
    <name>Boxtel</name>
    <id>btl</id>
    <c>NL</c>
    <t>6</t>
    <lat>51.58433</lat>
    <lon>5.31912</lon>
    <Syns />
  </s>
  <s>
    <name>Breda</name>
    <id>bd</id>
    <c>NL</c>
    <t>2</t>
    <lat>51.5955543518066</lat>
    <lon>4.78000020980835</lon>
    <Syns />
  </s>
  <s>
    <name>Breda-Prinsenbeek</name>
    <id>bdpb</id>
    <c>NL</c>
    <t>7</t>
    <lat>51.606388092041</lat>
    <lon>4.72083330154419</lon>
    <Syns>
      <Sy>Prinsenbk</Sy>
      <Sy>Prinsenbeek</Sy>
    </Syns>
  </s>
  <s>
    <name>Breukelen</name>
    <id>bkl</id>
    <c>NL</c>
    <t>6</t>
    <lat>52.17149</lat>
    <lon>4.9906</lon>
    <Syns />
  </s>
  <s>
    <name>Brummen</name>
    <id>bmn</id>
    <c>NL</c>
    <t>7</t>
    <lat>52.0911102294922</lat>
    <lon>6.14694452285767</lon>
    <Syns />
  </s>
  <s>
    <name>Buitenpost</name>
    <id>bp</id>
    <c>NL</c>
    <t>4</t>
    <lat>53.2564547</lat>
    <lon>6.1446496</lon>
    <Syns />
  </s>
  <s>
    <name>Bunde</name>
    <id>bde</id>
    <c>NL</c>
    <t>7</t>
    <lat>50.8969459533691</lat>
    <lon>5.73666667938232</lon>
    <Syns />
  </s>
  <s>
    <name>Bunnik</name>
    <id>bnk</id>
    <c>NL</c>
    <t>7</t>
    <lat>52.0630569458008</lat>
    <lon>5.19444465637207</lon>
    <Syns />
  </s>
  <s>
    <name>Bussum Zuid</name>
    <id>bsmz</id>
    <c>NL</c>
    <t>7</t>
    <lat>52.2658348083496</lat>
    <lon>5.16305541992188</lon>
    <Syns />
  </s>
  <s>
    <name>Capelle Schollevaar</name>
    <id>cps</id>
    <c>NL</c>
    <t>7</t>
    <lat>51.9541664123535</lat>
    <lon>4.58416652679443</lon>
    <Syns>
      <Sy>Schollevr</Sy>
      <Sy>Schollevaar</Sy>
    </Syns>
  </s>
  <s>
    <name>Castricum</name>
    <id>cas</id>
    <c>NL</c>
    <t>3</t>
    <lat>52.5458335876465</lat>
    <lon>4.65861129760742</lon>
    <Syns />
  </s>
  <s>
    <name>Chevremont</name>
    <id>cvm</id>
    <c>NL</c>
    <t>7</t>
    <lat>50.8761100769043</lat>
    <lon>6.05972242355347</lon>
    <Syns />
  </s>
  <s>
    <name>Coevorden</name>
    <id>co</id>
    <c>NL</c>
    <t>4</t>
    <lat>52.6636123657227</lat>
    <lon>6.73555564880371</lon>
    <Syns />
  </s>
  <s>
    <name>Cuijk</name>
    <id>ck</id>
    <c>NL</c>
    <t>7</t>
    <lat>51.7266825879048</lat>
    <lon>5.87429523468017</lon>
    <Syns />
  </s>
  <s>
    <name>Culemborg</name>
    <id>cl</id>
    <c>NL</c>
    <t>7</t>
    <lat>51.9466667175293</lat>
    <lon>5.22694444656372</lon>
    <Syns />
  </s>
  <s>
    <name>Daarlerveen</name>
    <id>da</id>
    <c>NL</c>
    <t>7</t>
    <lat>52.4407702</lat>
    <lon>6.5759947</lon>
    <Syns>
      <Sy>Daarlervn</Sy>
    </Syns>
  </s>
  <s>
    <name>Dalen</name>
    <id>dln</id>
    <c>NL</c>
    <t>7</t>
    <lat>52.6941680908203</lat>
    <lon>6.75805568695068</lon>
    <Syns />
  </s>
  <s>
    <name>Dalfsen</name>
    <id>dl</id>
    <c>NL</c>
    <t>5</t>
    <lat>52.4983329772949</lat>
    <lon>6.25861120223999</lon>
    <Syns />
  </s>
  <s>
    <name>De Vink</name>
    <id>dvnk</id>
    <c>NL</c>
    <t>7</t>
    <lat>52.1472206115723</lat>
    <lon>4.4563889503479</lon>
    <Syns />
  </s>
  <s>
    <name>De Westereen</name>
    <id>dwe</id>
    <c>NL</c>
    <t>7</t>
    <lat>53.24817</lat>
    <lon>6.03463</lon>
    <Syns>
      <Sy>Zwaagwesteinde</Sy>
      <Sy>Westereen</Sy>
    </Syns>
  </s>
  <s>
    <name>Deinum</name>
    <id>dei</id>
    <c>NL</c>
    <t>7</t>
    <lat>53.1888115</lat>
    <lon>5.7281572</lon>
    <Syns />
  </s>
  <s>
    <name>Delden</name>
    <id>ddn</id>
    <c>NL</c>
    <t>7</t>
    <lat>52.2599983215332</lat>
    <lon>6.7161111831665</lon>
    <Syns />
  </s>
  <s>
    <name>Delft</name>
    <id>dt</id>
    <c>NL</c>
    <t>2</t>
    <lat>52.0066680908203</lat>
    <lon>4.35638904571533</lon>
    <Syns />
  </s>
  <s>
    <name>Delft Zuid</name>
    <id>dtz</id>
    <c>NL</c>
    <t>7</t>
    <lat>51.9908332824707</lat>
    <lon>4.36472225189209</lon>
    <Syns />
  </s>
  <s>
    <name>Delfzijl</name>
    <id>dz</id>
    <c>NL</c>
    <t>7</t>
    <lat>53.3336625</lat>
    <lon>6.9240797</lon>
    <Syns />
  </s>
  <s>
    <name>Delfzijl West</name>
    <id>dzw</id>
    <c>NL</c>
    <t>7</t>
    <lat>53.3320834</lat>
    <lon>6.9069092</lon>
    <Syns />
  </s>
  <s>
    <name>Den Dolder</name>
    <id>dld</id>
    <c>NL</c>
    <t>6</t>
    <lat>52.1402778625488</lat>
    <lon>5.24277782440186</lon>
    <Syns />
  </s>
  <s>
    <name>Den Haag Centraal</name>
    <id>gvc</id>
    <c>NL</c>
    <t>1</t>
    <lat>52.0802764892578</lat>
    <lon>4.32499980926514</lon>
    <Syns>
      <Sy>'s-Gravenhage</Sy>
      <Sy>Den Haag C.</Sy>
    </Syns>
  </s>
  <s>
    <name>Den Haag HS</name>
    <id>gv</id>
    <c>NL</c>
    <t>2</t>
    <lat>52.0697212219238</lat>
    <lon>4.32250022888184</lon>
    <Syns>
      <Sy>Dn Haag HS</Sy>
    </Syns>
  </s>
  <s>
    <name>Den Haag Laan v NOI</name>
    <id>laa</id>
    <c>NL</c>
    <t>3</t>
    <lat>52.0786094665527</lat>
    <lon>4.34277772903442</lon>
    <Syns>
      <Sy>Laan v NOI</Sy>
    </Syns>
  </s>
  <s>
    <name>Den Haag Mariahoeve</name>
    <id>gvm</id>
    <c>NL</c>
    <t>7</t>
    <lat>52.0905570983887</lat>
    <lon>4.36944437026978</lon>
    <Syns>
      <Sy>Mariahoeve</Sy>
    </Syns>
  </s>
  <s>
    <name>Den Haag Moerwijk</name>
    <id>gvmw</id>
    <c>NL</c>
    <t>7</t>
    <lat>52.0538902282715</lat>
    <lon>4.3086109161377</lon>
    <Syns>
      <Sy>Moerwijk</Sy>
    </Syns>
  </s>
  <s>
    <name>Den Haag Ypenburg</name>
    <id>ypb</id>
    <c>NL</c>
    <t>7</t>
    <lat>52.0552787780762</lat>
    <lon>4.39222240447998</lon>
    <Syns>
      <Sy>Ypenburg</Sy>
    </Syns>
  </s>
  <s>
    <name>Den Helder</name>
    <id>hdr</id>
    <c>NL</c>
    <t>3</t>
    <lat>52.9552764892578</lat>
    <lon>4.76111125946045</lon>
    <Syns />
  </s>
  <s>
    <name>Den Helder Zuid</name>
    <id>hdrz</id>
    <c>NL</c>
    <t>7</t>
    <lat>52.9324989318848</lat>
    <lon>4.76416683197022</lon>
    <Syns>
      <Sy>Dn Heldr Z</Sy>
    </Syns>
  </s>
  <s>
    <name>Deurne</name>
    <id>dn</id>
    <c>NL</c>
    <t>7</t>
    <lat>51.4558334350586</lat>
    <lon>5.78888893127441</lon>
    <Syns />
  </s>
  <s>
    <name>Deventer</name>
    <id>dv</id>
    <c>NL</c>
    <t>2</t>
    <lat>52.2574996948242</lat>
    <lon>6.16055536270142</lon>
    <Syns />
  </s>
  <s>
    <name>Deventer Colmschate</name>
    <id>dvc</id>
    <c>NL</c>
    <t>7</t>
    <lat>52.2502784729004</lat>
    <lon>6.21444463729858</lon>
    <Syns>
      <Sy>Colmschate</Sy>
    </Syns>
  </s>
  <s>
    <name>Didam</name>
    <id>did</id>
    <c>NL</c>
    <t>7</t>
    <lat>51.933502</lat>
    <lon>6.1324106</lon>
    <Syns />
  </s>
  <s>
    <name>Diemen</name>
    <id>dmn</id>
    <c>NL</c>
    <t>7</t>
    <lat>52.345832824707</lat>
    <lon>4.9655556678772</lon>
    <Syns />
  </s>
  <s>
    <name>Diemen Zuid</name>
    <id>dmnz</id>
    <c>NL</c>
    <t>7</t>
    <lat>52.3302764892578</lat>
    <lon>4.95583343505859</lon>
    <Syns />
  </s>
  <s>
    <name>Dieren</name>
    <id>dr</id>
    <c>NL</c>
    <t>3</t>
    <lat>52.0449981689453</lat>
    <lon>6.10305547714233</lon>
    <Syns />
  </s>
  <s>
    <name>Doetinchem</name>
    <id>dtc</id>
    <c>NL</c>
    <t>6</t>
    <lat>51.9585962</lat>
    <lon>6.2962148</lon>
    <Syns />
  </s>
  <s>
    <name>Doetinchem De Huet</name>
    <id>dtch</id>
    <c>NL</c>
    <t>7</t>
    <lat>51.9591413</lat>
    <lon>6.2598521</lon>
    <Syns>
      <Sy>De Huet</Sy>
    </Syns>
  </s>
  <s>
    <name>Dordrecht</name>
    <id>ddr</id>
    <c>NL</c>
    <t>2</t>
    <lat>51.8072204589844</lat>
    <lon>4.66833353042603</lon>
    <Syns />
  </s>
  <s>
    <name>Dordrecht Stadspolders</name>
    <id>ddrs</id>
    <c>NL</c>
    <t>7</t>
    <lat>51.801944732666</lat>
    <lon>4.71666669845581</lon>
    <Syns>
      <Sy>Stadspldrs</Sy>
      <Sy>Stadspolders</Sy>
    </Syns>
  </s>
  <s>
    <name>Dordrecht Zuid</name>
    <id>ddzd</id>
    <c>NL</c>
    <t>7</t>
    <lat>51.7900009155273</lat>
    <lon>4.67138910293579</lon>
    <Syns>
      <Sy>Dordrcht Z</Sy>
    </Syns>
  </s>
  <s>
    <name>Driebergen-Zeist</name>
    <id>db</id>
    <c>NL</c>
    <t>6</t>
    <lat>52.0652770996094</lat>
    <lon>5.25861120223999</lon>
    <Syns />
  </s>
  <s>
    <name>Driehuis</name>
    <id>drh</id>
    <c>NL</c>
    <t>7</t>
    <lat>52.4425010681152</lat>
    <lon>4.63805532455444</lon>
    <Syns />
  </s>
  <s>
    <name>Dronryp</name>
    <id>drp</id>
    <c>NL</c>
    <t>7</t>
    <lat>53.1778086</lat>
    <lon>5.6347411</lon>
    <Syns>
      <Sy>Dronrijp</Sy>
    </Syns>
  </s>
  <s>
    <name>Dronten</name>
    <id>dron</id>
    <c>NL</c>
    <t>7</t>
    <lat>52.5344</lat>
    <lon>5.72089</lon>
    <Syns />
  </s>
  <s>
    <name>Duiven</name>
    <id>dvn</id>
    <c>NL</c>
    <t>7</t>
    <lat>51.9433326721191</lat>
    <lon>6.01472234725952</lon>
    <Syns />
  </s>
  <s>
    <name>Duivendrecht</name>
    <id>dvd</id>
    <c>NL</c>
    <t>6</t>
    <lat>52.3233337402344</lat>
    <lon>4.93638896942139</lon>
    <Syns>
      <Sy>Duivendrt</Sy>
    </Syns>
  </s>
  <s>
    <name>Echt</name>
    <id>ec</id>
    <c>NL</c>
    <t>7</t>
    <lat>51.1005554199219</lat>
    <lon>5.87888908386231</lon>
    <Syns />
  </s>
  <s>
    <name>Ede Centrum</name>
    <id>edc</id>
    <c>NL</c>
    <t>7</t>
    <lat>52.0436096191406</lat>
    <lon>5.66833353042603</lon>
    <Syns>
      <Sy>Ede C.</Sy>
    </Syns>
  </s>
  <s>
    <name>Ede-Wageningen</name>
    <id>ed</id>
    <c>NL</c>
    <t>2</t>
    <lat>52.0277786254883</lat>
    <lon>5.67305564880371</lon>
    <Syns />
  </s>
  <s>
    <name>Eijsden</name>
    <id>edn</id>
    <c>NL</c>
    <t>7</t>
    <lat>50.7719459533691</lat>
    <lon>5.71000003814697</lon>
    <Syns />
  </s>
  <s>
    <name>Eindhoven</name>
    <id>ehv</id>
    <c>NL</c>
    <t>2</t>
    <lat>51.4433326721191</lat>
    <lon>5.48138904571533</lon>
    <Syns />
  </s>
  <s>
    <name>Eindhoven Strijp-S</name>
    <id>ehs</id>
    <c>NL</c>
    <t>7</t>
    <lat>51.4511108398438</lat>
    <lon>5.45583343505859</lon>
    <Syns>
      <Sy>Eindhoven Beukenlaan</Sy>
      <Sy>Strijp-S</Sy>
    </Syns>
  </s>
  <s>
    <name>Elst</name>
    <id>est</id>
    <c>NL</c>
    <t>6</t>
    <lat>51.9169425964355</lat>
    <lon>5.85500001907349</lon>
    <Syns />
  </s>
  <s>
    <name>Emmen</name>
    <id>emn</id>
    <c>NL</c>
    <t>5</t>
    <lat>52.7900009155273</lat>
    <lon>6.89944458007812</lon>
    <Syns />
  </s>
  <s>
    <name>Emmen Zuid</name>
    <id>emnz</id>
    <c>NL</c>
    <t>5</t>
    <lat>52.7488663746914</lat>
    <lon>6.87478065490722</lon>
    <Syns />
  </s>
  <s>
    <name>Enkhuizen</name>
    <id>ekz</id>
    <c>NL</c>
    <t>7</t>
    <lat>52.6991653442383</lat>
    <lon>5.28638887405396</lon>
    <Syns />
  </s>
  <s>
    <name>Enschede</name>
    <id>es</id>
    <c>NL</c>
    <t>2</t>
    <lat>52.2224998474121</lat>
    <lon>6.8899998664856</lon>
    <Syns />
  </s>
  <s>
    <name>Enschede De Eschmarke</name>
    <id>ese</id>
    <c>NL</c>
    <t>7</t>
    <lat>52.2213897705078</lat>
    <lon>6.95111131668091</lon>
    <Syns>
      <Sy>De Eschmarke</Sy>
      <Sy>Eschmarke</Sy>
    </Syns>
  </s>
  <s>
    <name>Enschede Kennispark</name>
    <id>esk</id>
    <c>NL</c>
    <t>7</t>
    <lat>52.2374992370605</lat>
    <lon>6.83888912200928</lon>
    <Syns>
      <Sy>Enschede Drienerlo</Sy>
      <Sy>Kennispark</Sy>
    </Syns>
  </s>
  <s>
    <name>Ermelo</name>
    <id>eml</id>
    <c>NL</c>
    <t>7</t>
    <lat>52.3016662597656</lat>
    <lon>5.61472225189209</lon>
    <Syns />
  </s>
  <s>
    <name>Etten-Leur</name>
    <id>etn</id>
    <c>NL</c>
    <t>3</t>
    <lat>51.5750007629395</lat>
    <lon>4.63583326339722</lon>
    <Syns />
  </s>
  <s>
    <name>Eygelshoven</name>
    <id>egh</id>
    <c>NL</c>
    <t>7</t>
    <lat>50.8905563354492</lat>
    <lon>6.04500007629395</lon>
    <Syns />
  </s>
  <s>
    <name>Eygelshoven Markt</name>
    <id>eghm</id>
    <c>NL</c>
    <t>7</t>
    <lat>50.8960498196442</lat>
    <lon>6.06024742126464</lon>
    <Syns>
      <Sy>Eygelsh M</Sy>
      <Sy>Eygelshoven Mrkt</Sy>
    </Syns>
  </s>
  <s>
    <name>Feanwalden</name>
    <id>fwd</id>
    <c>NL</c>
    <t>7</t>
    <lat>53.2351834</lat>
    <lon>5.9886615</lon>
    <Syns>
      <Sy>Veenwouden</Sy>
    </Syns>
  </s>
  <s>
    <name>Franeker</name>
    <id>fn</id>
    <c>NL</c>
    <t>7</t>
    <lat>53.1824488</lat>
    <lon>5.5483094</lon>
    <Syns />
  </s>
  <s>
    <name>Gaanderen</name>
    <id>gdr</id>
    <c>NL</c>
    <t>7</t>
    <lat>51.93074</lat>
    <lon>6.3486</lon>
    <Syns />
  </s>
  <s>
    <name>Geldermalsen</name>
    <id>gdm</id>
    <c>NL</c>
    <t>6</t>
    <lat>51.88301</lat>
    <lon>5.27127</lon>
    <Syns>
      <Sy>Geldermlsn</Sy>
    </Syns>
  </s>
  <s>
    <name>Geldrop</name>
    <id>gp</id>
    <c>NL</c>
    <t>7</t>
    <lat>51.4197235107422</lat>
    <lon>5.55055570602417</lon>
    <Syns />
  </s>
  <s>
    <name>Geleen Oost</name>
    <id>gln</id>
    <c>NL</c>
    <t>7</t>
    <lat>50.9669456481934</lat>
    <lon>5.84305572509766</lon>
    <Syns />
  </s>
  <s>
    <name>Geleen-Lutterade</name>
    <id>lut</id>
    <c>NL</c>
    <t>7</t>
    <lat>50.9755554199219</lat>
    <lon>5.82472229003906</lon>
    <Syns />
  </s>
  <s>
    <name>Gilze-Rijen</name>
    <id>gz</id>
    <c>NL</c>
    <t>7</t>
    <lat>51.583610534668</lat>
    <lon>4.92611122131348</lon>
    <Syns />
  </s>
  <s>
    <name>Glanerbrug</name>
    <id>gbr</id>
    <c>NL</c>
    <t>7</t>
    <lat>52.2186126708984</lat>
    <lon>6.97444438934326</lon>
    <Syns />
  </s>
  <s>
    <name>Goes</name>
    <id>gs</id>
    <c>NL</c>
    <t>7</t>
    <lat>51.4980545043945</lat>
    <lon>3.89055562019348</lon>
    <Syns />
  </s>
  <s>
    <name>Goor</name>
    <id>go</id>
    <c>NL</c>
    <t>7</t>
    <lat>52.2302780151367</lat>
    <lon>6.58444452285767</lon>
    <Syns />
  </s>
  <s>
    <name>Gorinchem</name>
    <id>gr</id>
    <c>NL</c>
    <t>6</t>
    <lat>51.8338890075684</lat>
    <lon>4.96833324432373</lon>
    <Syns />
  </s>
  <s>
    <name>Gouda</name>
    <id>gd</id>
    <c>NL</c>
    <t>2</t>
    <lat>52.0175018310547</lat>
    <lon>4.70444440841675</lon>
    <Syns />
  </s>
  <s>
    <name>Gouda Goverwelle</name>
    <id>gdg</id>
    <c>NL</c>
    <t>7</t>
    <lat>52.0149993896484</lat>
    <lon>4.7408332824707</lon>
    <Syns>
      <Sy>Goverwelle</Sy>
    </Syns>
  </s>
  <s>
    <name>Gramsbergen</name>
    <id>gbg</id>
    <c>NL</c>
    <t>7</t>
    <lat>52.6091651916504</lat>
    <lon>6.67583322525024</lon>
    <Syns>
      <Sy>Gramsbergn</Sy>
    </Syns>
  </s>
  <s>
    <name>Grijpskerk</name>
    <id>gk</id>
    <c>NL</c>
    <t>7</t>
    <lat>53.2557403255735</lat>
    <lon>6.30977869033813</lon>
    <Syns />
  </s>
  <s>
    <name>Groningen</name>
    <id>gn</id>
    <c>NL</c>
    <t>2</t>
    <lat>53.2105560302734</lat>
    <lon>6.56472206115723</lon>
    <Syns />
  </s>
  <s>
    <name>Groningen Europapark</name>
    <id>gerp</id>
    <c>NL</c>
    <t>7</t>
    <lat>53.20480027</lat>
    <lon>6.5854178</lon>
    <Syns>
      <Sy>Europapark</Sy>
    </Syns>
  </s>
  <s>
    <name>Groningen Noord</name>
    <id>gnn</id>
    <c>NL</c>
    <t>7</t>
    <lat>53.2301469</lat>
    <lon>6.5563172</lon>
    <Syns>
      <Sy>Groningn N</Sy>
    </Syns>
  </s>
  <s>
    <name>Grou-Jirnsum</name>
    <id>gw</id>
    <c>NL</c>
    <t>7</t>
    <lat>53.0888900756836</lat>
    <lon>5.82250022888184</lon>
    <Syns />
  </s>
  <s>
    <name>Haarlem</name>
    <id>hlm</id>
    <c>NL</c>
    <t>2</t>
    <lat>52.3877792358398</lat>
    <lon>4.63833332061768</lon>
    <Syns />
  </s>
  <s>
    <name>Haarlem Spaarnwoude</name>
    <id>hlms</id>
    <c>NL</c>
    <t>7</t>
    <lat>52.3827781677246</lat>
    <lon>4.67305564880371</lon>
    <Syns>
      <Sy>Spaarnwde</Sy>
      <Sy>Spaarnwoude</Sy>
    </Syns>
  </s>
  <s>
    <name>Halfweg-Zwanenburg</name>
    <id>hwzb</id>
    <c>NL</c>
    <t>7</t>
    <lat>52.385935</lat>
    <lon>4.747165</lon>
    <Syns>
      <Sy>Halfweg-Zwanenb.</Sy>
    </Syns>
  </s>
  <s>
    <name>Hardenberg</name>
    <id>hdb</id>
    <c>NL</c>
    <t>5</t>
    <lat>52.5727767944336</lat>
    <lon>6.62861108779907</lon>
    <Syns />
  </s>
  <s>
    <name>Harderwijk</name>
    <id>hd</id>
    <c>NL</c>
    <t>6</t>
    <lat>52.3375015258789</lat>
    <lon>5.61972236633301</lon>
    <Syns />
  </s>
  <s>
    <name>Hardinxveld Blauwe Zoom</name>
    <id>hbzm</id>
    <c>NL</c>
    <t>7</t>
    <lat>51.82944</lat>
    <lon>4.81556</lon>
    <Syns>
      <Sy>Blauwe Zm</Sy>
      <Sy>Blauwe Zoom</Sy>
    </Syns>
  </s>
  <s>
    <name>Hardinxveld-Giessendam</name>
    <id>gnd</id>
    <c>NL</c>
    <t>7</t>
    <lat>51.8305549621582</lat>
    <lon>4.83583354949951</lon>
    <Syns>
      <Sy>Hardinxvld</Sy>
      <Sy>Hardinxveld-G.</Sy>
    </Syns>
  </s>
  <s>
    <name>Haren</name>
    <id>hrn</id>
    <c>NL</c>
    <t>7</t>
    <lat>53.1761093139648</lat>
    <lon>6.61722230911255</lon>
    <Syns />
  </s>
  <s>
    <name>Harlingen</name>
    <id>hlg</id>
    <c>NL</c>
    <t>7</t>
    <lat>53.1704205</lat>
    <lon>5.4251932</lon>
    <Syns />
  </s>
  <s>
    <name>Harlingen Haven</name>
    <id>hlgh</id>
    <c>NL</c>
    <t>7</t>
    <lat>53.174917</lat>
    <lon>5.4112885</lon>
    <Syns>
      <Sy>Harl Haven</Sy>
    </Syns>
  </s>
  <s>
    <name>Heemskerk</name>
    <id>hk</id>
    <c>NL</c>
    <t>7</t>
    <lat>52.4952774047852</lat>
    <lon>4.68694448471069</lon>
    <Syns />
  </s>
  <s>
    <name>Heemstede-Aerdenhout</name>
    <id>had</id>
    <c>NL</c>
    <t>3</t>
    <lat>52.3591651916504</lat>
    <lon>4.60666656494141</lon>
    <Syns>
      <Sy>Heemstede-A.</Sy>
    </Syns>
  </s>
  <s>
    <name>Heerenveen</name>
    <id>hr</id>
    <c>NL</c>
    <t>3</t>
    <lat>52.9613876342773</lat>
    <lon>5.91416645050049</lon>
    <Syns />
  </s>
  <s>
    <name>Heerhugowaard</name>
    <id>hwd</id>
    <c>NL</c>
    <t>6</t>
    <lat>52.6697235107422</lat>
    <lon>4.82277774810791</lon>
    <Syns />
  </s>
  <s>
    <name>Heerlen</name>
    <id>hrl</id>
    <c>NL</c>
    <t>2</t>
    <lat>50.8908348083496</lat>
    <lon>5.97499990463257</lon>
    <Syns />
  </s>
  <s>
    <name>Heerlen De Kissel</name>
    <id>hrlk</id>
    <c>NL</c>
    <t>7</t>
    <lat>50.8901689328708</lat>
    <lon>5.99334239959716</lon>
    <Syns>
      <Sy>De Kissel</Sy>
      <Sy>Hrl De Kissel</Sy>
    </Syns>
  </s>
  <s>
    <name>Heerlen Woonboulevard</name>
    <id>hrlw</id>
    <c>NL</c>
    <t>7</t>
    <lat>50.896667</lat>
    <lon>5.952222</lon>
    <Syns>
      <Sy>Hrl Woonblvd</Sy>
    </Syns>
  </s>
  <s>
    <name>Heeze</name>
    <id>hze</id>
    <c>NL</c>
    <t>7</t>
    <lat>51.3849983215332</lat>
    <lon>5.56944465637207</lon>
    <Syns />
  </s>
  <s>
    <name>Heiloo</name>
    <id>hlo</id>
    <c>NL</c>
    <t>7</t>
    <lat>52.5994453430176</lat>
    <lon>4.70055532455444</lon>
    <Syns />
  </s>
  <s>
    <name>Heino</name>
    <id>hno</id>
    <c>NL</c>
    <t>7</t>
    <lat>52.4272232055664</lat>
    <lon>6.22111129760742</lon>
    <Syns />
  </s>
  <s>
    <name>Helmond</name>
    <id>hm</id>
    <c>NL</c>
    <t>2</t>
    <lat>51.4755554199219</lat>
    <lon>5.66194438934326</lon>
    <Syns />
  </s>
  <s>
    <name>Helmond 't Hout</name>
    <id>hmh</id>
    <c>NL</c>
    <t>7</t>
    <lat>51.46794</lat>
    <lon>5.63085</lon>
    <Syns>
      <Sy>'t Hout</Sy>
    </Syns>
  </s>
  <s>
    <name>Helmond Brandevoort</name>
    <id>hmbv</id>
    <c>NL</c>
    <t>7</t>
    <lat>51.4622230529785</lat>
    <lon>5.60722208023071</lon>
    <Syns>
      <Sy>Brandevrt</Sy>
      <Sy>Brandevoort</Sy>
    </Syns>
  </s>
  <s>
    <name>Helmond Brouwhuis</name>
    <id>hmbh</id>
    <c>NL</c>
    <t>7</t>
    <lat>51.47068</lat>
    <lon>5.70177</lon>
    <Syns>
      <Sy>Brouwhuis</Sy>
    </Syns>
  </s>
  <s>
    <name>Hemmen-Dodewaard</name>
    <id>hmn</id>
    <c>NL</c>
    <t>7</t>
    <lat>51.9222129</lat>
    <lon>5.6737254</lon>
    <Syns />
  </s>
  <s>
    <name>Hengelo</name>
    <id>hgl</id>
    <c>NL</c>
    <t>2</t>
    <lat>52.2616653442383</lat>
    <lon>6.79388904571533</lon>
    <Syns />
  </s>
  <s>
    <name>Hengelo Gezondheidspark</name>
    <id>hglg</id>
    <c>NL</c>
    <t>7</t>
    <lat>52.261667</lat>
    <lon>6.773611</lon>
    <Syns>
      <Sy>Gezondhprk</Sy>
      <Sy>Hengelo Gezondh.</Sy>
    </Syns>
  </s>
  <s>
    <name>Hengelo Oost</name>
    <id>hglo</id>
    <c>NL</c>
    <t>7</t>
    <lat>52.2688903808594</lat>
    <lon>6.81944465637207</lon>
    <Syns />
  </s>
  <s>
    <name>Hillegom</name>
    <id>hil</id>
    <c>NL</c>
    <t>7</t>
    <lat>52.3025016784668</lat>
    <lon>4.56555557250977</lon>
    <Syns />
  </s>
  <s>
    <name>Hilversum</name>
    <id>hvs</id>
    <c>NL</c>
    <t>2</t>
    <lat>52.2258338928223</lat>
    <lon>5.18194437026978</lon>
    <Syns />
  </s>
  <s>
    <name>Hilversum Media Park</name>
    <id>hvsm</id>
    <c>NL</c>
    <t>7</t>
    <lat>52.2380561828613</lat>
    <lon>5.17388868331909</lon>
    <Syns>
      <Sy>Media Park</Sy>
    </Syns>
  </s>
  <s>
    <name>Hilversum Sportpark</name>
    <id>hvsp</id>
    <c>NL</c>
    <t>7</t>
    <lat>52.2161102294922</lat>
    <lon>5.18722200393677</lon>
    <Syns>
      <Sy>Sportpark</Sy>
    </Syns>
  </s>
  <s>
    <name>Hindeloopen</name>
    <id>hnp</id>
    <c>NL</c>
    <t>7</t>
    <lat>52.9464903</lat>
    <lon>5.423063</lon>
    <Syns>
      <Sy>Hindeloopn</Sy>
    </Syns>
  </s>
  <s>
    <name>Hoek van Holland Haven</name>
    <id>hld</id>
    <c>NL</c>
    <t>6</t>
    <lat>51.9752769470215</lat>
    <lon>4.1288890838623</lon>
    <Syns>
      <Sy>HvH Haven</Sy>
      <Sy>Hoek v H. Haven</Sy>
    </Syns>
  </s>
  <s>
    <name>Hoek van Holland Strand</name>
    <id>hlds</id>
    <c>NL</c>
    <t>7</t>
    <lat>51.9816665649414</lat>
    <lon>4.11972236633301</lon>
    <Syns>
      <Sy>HvH Strand</Sy>
      <Sy>Hoek v H. Strand</Sy>
    </Syns>
  </s>
  <s>
    <name>Hoensbroek</name>
    <id>hb</id>
    <c>NL</c>
    <t>7</t>
    <lat>50.9055557250977</lat>
    <lon>5.93055534362793</lon>
    <Syns />
  </s>
  <s>
    <name>Hoevelaken</name>
    <id>hvl</id>
    <c>NL</c>
    <t>7</t>
    <lat>52.16652</lat>
    <lon>5.45718</lon>
    <Syns />
  </s>
  <s>
    <name>Hollandsche Rading</name>
    <id>hor</id>
    <c>NL</c>
    <t>7</t>
    <lat>52.1777763366699</lat>
    <lon>5.17916679382324</lon>
    <Syns>
      <Sy>Hol Rading</Sy>
      <Sy>Holl. Rading</Sy>
    </Syns>
  </s>
  <s>
    <name>Holten</name>
    <id>hon</id>
    <c>NL</c>
    <t>7</t>
    <lat>52.2838897705078</lat>
    <lon>6.42027759552002</lon>
    <Syns />
  </s>
  <s>
    <name>Hoofddorp</name>
    <id>hfd</id>
    <c>NL</c>
    <t>7</t>
    <lat>52.2933349609375</lat>
    <lon>4.70055532455444</lon>
    <Syns />
  </s>
  <s>
    <name>Hoogeveen</name>
    <id>hgv</id>
    <c>NL</c>
    <t>7</t>
    <lat>52.7338905334473</lat>
    <lon>6.47361087799072</lon>
    <Syns />
  </s>
  <s>
    <name>Hoogezand-Sappemeer</name>
    <id>hgz</id>
    <c>NL</c>
    <t>6</t>
    <lat>53.1598181316756</lat>
    <lon>6.77075386047363</lon>
    <Syns>
      <Sy>Hoogezand-Sap.</Sy>
    </Syns>
  </s>
  <s>
    <name>Hoogkarspel</name>
    <id>hks</id>
    <c>NL</c>
    <t>7</t>
    <lat>52.6905555725098</lat>
    <lon>5.18388891220093</lon>
    <Syns>
      <Sy>Hoogkrspl</Sy>
    </Syns>
  </s>
  <s>
    <name>Hoorn</name>
    <id>hn</id>
    <c>NL</c>
    <t>2</t>
    <lat>52.6447219848633</lat>
    <lon>5.05555534362793</lon>
    <Syns />
  </s>
  <s>
    <name>Hoorn Kersenboogerd</name>
    <id>hnk</id>
    <c>NL</c>
    <t>7</t>
    <lat>52.6536102294922</lat>
    <lon>5.08555555343628</lon>
    <Syns>
      <Sy>Kersenboogerd</Sy>
    </Syns>
  </s>
  <s>
    <name>Horst-Sevenum</name>
    <id>hrt</id>
    <c>NL</c>
    <t>7</t>
    <lat>51.4263877868652</lat>
    <lon>6.04222202301025</lon>
    <Syns />
  </s>
  <s>
    <name>Houten</name>
    <id>htn</id>
    <c>NL</c>
    <t>6</t>
    <lat>52.03402</lat>
    <lon>5.16821</lon>
    <Syns />
  </s>
  <s>
    <name>Houten Castellum</name>
    <id>htnc</id>
    <c>NL</c>
    <t>7</t>
    <lat>52.01701</lat>
    <lon>5.17949</lon>
    <Syns />
  </s>
  <s>
    <name>Houthem-St Gerlach</name>
    <id>sgl</id>
    <c>NL</c>
    <t>7</t>
    <lat>50.8733329772949</lat>
    <lon>5.79722213745117</lon>
    <Syns>
      <Sy>Houthem-St Gerl.</Sy>
    </Syns>
  </s>
  <s>
    <name>Hurdegaryp</name>
    <id>hdg</id>
    <c>NL</c>
    <t>7</t>
    <lat>53.2187783</lat>
    <lon>5.934543</lon>
    <Syns />
  </s>
  <s>
    <name>IJlst</name>
    <id>ijt</id>
    <c>NL</c>
    <t>7</t>
    <lat>53.0146614</lat>
    <lon>5.6160801</lon>
    <Syns />
  </s>
  <s>
    <name>Kampen</name>
    <id>kpn</id>
    <c>NL</c>
    <t>7</t>
    <lat>52.5597229003906</lat>
    <lon>5.92166662216186</lon>
    <Syns />
  </s>
  <s>
    <name>Kampen Zuid</name>
    <id>kpnz</id>
    <c>NL</c>
    <t>7</t>
    <lat>52.5331</lat>
    <lon>5.91309</lon>
    <Syns />
  </s>
  <s>
    <name>Kapelle-Biezelinge</name>
    <id>bzl</id>
    <c>NL</c>
    <t>7</t>
    <lat>51.4808349609375</lat>
    <lon>3.95611119270325</lon>
    <Syns>
      <Sy>Kapelle-Biezel.</Sy>
    </Syns>
  </s>
  <s>
    <name>Kerkrade Centrum</name>
    <id>krd</id>
    <c>NL</c>
    <t>6</t>
    <lat>50.8616676330566</lat>
    <lon>6.05749988555908</lon>
    <Syns>
      <Sy>Kerkrade C.</Sy>
    </Syns>
  </s>
  <s>
    <name>Kesteren</name>
    <id>ktr</id>
    <c>NL</c>
    <t>7</t>
    <lat>51.9313869</lat>
    <lon>5.5833465</lon>
    <Syns />
  </s>
  <s>
    <name>Klarenbeek</name>
    <id>kbk</id>
    <c>NL</c>
    <t>7</t>
    <lat>52.1780548095703</lat>
    <lon>6.08361101150513</lon>
    <Syns>
      <Sy>Klarenbk</Sy>
    </Syns>
  </s>
  <s>
    <name>Klimmen-Ransdaal</name>
    <id>kmr</id>
    <c>NL</c>
    <t>7</t>
    <lat>50.8663902282715</lat>
    <lon>5.8905553817749</lon>
    <Syns />
  </s>
  <s>
    <name>Koog Bloemwijk</name>
    <id>kbw</id>
    <c>NL</c>
    <t>7</t>
    <lat>52.458610534668</lat>
    <lon>4.80555534362793</lon>
    <Syns />
  </s>
  <s>
    <name>Koog-Zaandijk</name>
    <id>kzd</id>
    <c>NL</c>
    <t>7</t>
    <lat>52.469165802002</lat>
    <lon>4.80499982833862</lon>
    <Syns>
      <Sy>Koog Zaand</Sy>
    </Syns>
  </s>
  <s>
    <name>Koudum-Molkwerum</name>
    <id>kmw</id>
    <c>NL</c>
    <t>7</t>
    <lat>52.9028197</lat>
    <lon>5.4106913</lon>
    <Syns />
  </s>
  <s>
    <name>Krabbendijke</name>
    <id>kbd</id>
    <c>NL</c>
    <t>7</t>
    <lat>51.4333343505859</lat>
    <lon>4.11694431304932</lon>
    <Syns>
      <Sy>Krabbendke</Sy>
    </Syns>
  </s>
  <s>
    <name>Krommenie-Assendelft</name>
    <id>kma</id>
    <c>NL</c>
    <t>7</t>
    <lat>52.49511</lat>
    <lon>4.75417</lon>
    <Syns>
      <Sy>Krommenie-Ass.</Sy>
    </Syns>
  </s>
  <s>
    <name>Kropswolde</name>
    <id>kw</id>
    <c>NL</c>
    <t>7</t>
    <lat>53.1617362</lat>
    <lon>6.7220882</lon>
    <Syns />
  </s>
  <s>
    <name>Kruiningen-Yerseke</name>
    <id>krg</id>
    <c>NL</c>
    <t>7</t>
    <lat>51.4650001525879</lat>
    <lon>4.03722238540649</lon>
    <Syns>
      <Sy>Kruiningen-Y.</Sy>
    </Syns>
  </s>
  <s>
    <name>Lage Zwaluwe</name>
    <id>zlw</id>
    <c>NL</c>
    <t>6</t>
    <lat>51.6911125183105</lat>
    <lon>4.66305541992188</lon>
    <Syns />
  </s>
  <s>
    <name>Landgraaf</name>
    <id>lg</id>
    <c>NL</c>
    <t>6</t>
    <lat>50.8963890075684</lat>
    <lon>6.01916646957398</lon>
    <Syns />
  </s>
  <s>
    <name>Leerdam</name>
    <id>ldm</id>
    <c>NL</c>
    <t>7</t>
    <lat>51.8947219848633</lat>
    <lon>5.09138870239258</lon>
    <Syns />
  </s>
  <s>
    <name>Leeuwarden</name>
    <id>lw</id>
    <c>NL</c>
    <t>2</t>
    <lat>53.1958351135254</lat>
    <lon>5.79222202301025</lon>
    <Syns />
  </s>
  <s>
    <name>Leeuwarden Camminghaburen</name>
    <id>lwc</id>
    <c>NL</c>
    <t>7</t>
    <lat>53.2021808</lat>
    <lon>5.8422968</lon>
    <Syns>
      <Sy>Camminghab</Sy>
      <Sy>Camminghaburen</Sy>
    </Syns>
  </s>
  <s>
    <name>Leiden Centraal</name>
    <id>ledn</id>
    <c>NL</c>
    <t>2</t>
    <lat>52.1661109924316</lat>
    <lon>4.48166656494141</lon>
    <Syns>
      <Sy>Leiden C.</Sy>
    </Syns>
  </s>
  <s>
    <name>Leiden Lammenschans</name>
    <id>ldl</id>
    <c>NL</c>
    <t>7</t>
    <lat>52.1469459533691</lat>
    <lon>4.49249982833862</lon>
    <Syns>
      <Sy>Lammenschans</Sy>
    </Syns>
  </s>
  <s>
    <name>Lelystad Centrum</name>
    <id>lls</id>
    <c>NL</c>
    <t>2</t>
    <lat>52.5077781677246</lat>
    <lon>5.47277784347534</lon>
    <Syns>
      <Sy>Lelystad C.</Sy>
    </Syns>
  </s>
  <s>
    <name>Lichtenvoorde-Groenlo</name>
    <id>ltv</id>
    <c>NL</c>
    <t>7</t>
    <lat>52.01188</lat>
    <lon>6.59641</lon>
    <Syns>
      <Sy>Lichtenv-G</Sy>
      <Sy>Lichtenvoorde-G.</Sy>
    </Syns>
  </s>
  <s>
    <name>Lochem</name>
    <id>lc</id>
    <c>NL</c>
    <t>7</t>
    <lat>52.1666679382324</lat>
    <lon>6.42638874053955</lon>
    <Syns />
  </s>
  <s>
    <name>Loppersum</name>
    <id>lp</id>
    <c>NL</c>
    <t>7</t>
    <lat>53.3347145</lat>
    <lon>6.7472625</lon>
    <Syns />
  </s>
  <s>
    <name>Lunteren</name>
    <id>ltn</id>
    <c>NL</c>
    <t>7</t>
    <lat>52.085277557373</lat>
    <lon>5.62444448471069</lon>
    <Syns />
  </s>
  <s>
    <name>Maarheeze</name>
    <id>mz</id>
    <c>NL</c>
    <t>7</t>
    <lat>51.3037623603504</lat>
    <lon>5.63034296035766</lon>
    <Syns />
  </s>
  <s>
    <name>Maarn</name>
    <id>mrn</id>
    <c>NL</c>
    <t>6</t>
    <lat>52.0641670227051</lat>
    <lon>5.36999988555908</lon>
    <Syns />
  </s>
  <s>
    <name>Maarssen</name>
    <id>mas</id>
    <c>NL</c>
    <t>7</t>
    <lat>52.1352767944336</lat>
    <lon>5.03361129760742</lon>
    <Syns />
  </s>
  <s>
    <name>Maassluis</name>
    <id>mss</id>
    <c>NL</c>
    <t>6</t>
    <lat>51.9161109924316</lat>
    <lon>4.25472211837769</lon>
    <Syns />
  </s>
  <s>
    <name>Maassluis West</name>
    <id>msw</id>
    <c>NL</c>
    <t>7</t>
    <lat>51.9258346557617</lat>
    <lon>4.23611116409302</lon>
    <Syns>
      <Sy>Maassl W</Sy>
    </Syns>
  </s>
  <s>
    <name>Maastricht</name>
    <id>mt</id>
    <c>NL</c>
    <t>2</t>
    <lat>50.8502769470215</lat>
    <lon>5.70555543899536</lon>
    <Syns />
  </s>
  <s>
    <name>Maastricht Noord</name>
    <id>mtn</id>
    <c>NL</c>
    <t>7</t>
    <lat>50.87087</lat>
    <lon>5.71774</lon>
    <Syns>
      <Sy>Maastr N</Sy>
    </Syns>
  </s>
  <s>
    <name>Maastricht Randwyck</name>
    <id>mtr</id>
    <c>NL</c>
    <t>6</t>
    <lat>50.8386116027832</lat>
    <lon>5.71722221374512</lon>
    <Syns>
      <Sy>Maastr Rw</Sy>
    </Syns>
  </s>
  <s>
    <name>Mantgum</name>
    <id>mg</id>
    <c>NL</c>
    <t>7</t>
    <lat>53.1296368</lat>
    <lon>5.7131996</lon>
    <Syns />
  </s>
  <s>
    <name>Mariënberg</name>
    <id>mrb</id>
    <c>NL</c>
    <t>4</t>
    <lat>52.5094451904297</lat>
    <lon>6.57527780532837</lon>
    <Syns />
  </s>
  <s>
    <name>Martenshoek</name>
    <id>mth</id>
    <c>NL</c>
    <t>7</t>
    <lat>53.1607232</lat>
    <lon>6.7402989</lon>
    <Syns>
      <Sy>Martenshk</Sy>
    </Syns>
  </s>
  <s>
    <name>Meerssen</name>
    <id>mes</id>
    <c>NL</c>
    <t>5</t>
    <lat>50.882879392551</lat>
    <lon>5.75099945068359</lon>
    <Syns />
  </s>
  <s>
    <name>Meppel</name>
    <id>mp</id>
    <c>NL</c>
    <t>6</t>
    <lat>52.6908340454102</lat>
    <lon>6.19750022888184</lon>
    <Syns />
  </s>
  <s>
    <name>Middelburg</name>
    <id>mdb</id>
    <c>NL</c>
    <t>7</t>
    <lat>51.4947204589844</lat>
    <lon>3.61722230911255</lon>
    <Syns />
  </s>
  <s>
    <name>Mook Molenhoek</name>
    <id>mmlh</id>
    <c>NL</c>
    <t>7</t>
    <lat>51.77158</lat>
    <lon>5.88145</lon>
    <Syns>
      <Sy>Molenhoek</Sy>
    </Syns>
  </s>
  <s>
    <name>Naarden-Bussum</name>
    <id>ndb</id>
    <c>NL</c>
    <t>6</t>
    <lat>52.2802772521973</lat>
    <lon>5.15694427490234</lon>
    <Syns />
  </s>
  <s>
    <name>Nieuw Amsterdam</name>
    <id>na</id>
    <c>NL</c>
    <t>5</t>
    <lat>52.7186126708984</lat>
    <lon>6.84861087799072</lon>
    <Syns>
      <Sy>Nw A'dam</Sy>
    </Syns>
  </s>
  <s>
    <name>Nieuw Vennep</name>
    <id>nvp</id>
    <c>NL</c>
    <t>7</t>
    <lat>52.2588882446289</lat>
    <lon>4.64555549621582</lon>
    <Syns>
      <Sy>Nw Vennep</Sy>
    </Syns>
  </s>
  <s>
    <name>Nieuwerkerk a/d IJssel</name>
    <id>nwk</id>
    <c>NL</c>
    <t>7</t>
    <lat>51.9652786254883</lat>
    <lon>4.61694431304932</lon>
    <Syns>
      <Sy>Nieuwerkrk</Sy>
    </Syns>
  </s>
  <s>
    <name>Nijkerk</name>
    <id>nkk</id>
    <c>NL</c>
    <t>7</t>
    <lat>52.2222213745117</lat>
    <lon>5.49388885498047</lon>
    <Syns />
  </s>
  <s>
    <name>Nijmegen</name>
    <id>nm</id>
    <c>NL</c>
    <t>2</t>
    <lat>51.8436126708984</lat>
    <lon>5.85222244262695</lon>
    <Syns />
  </s>
  <s>
    <name>Nijmegen Dukenburg</name>
    <id>nmd</id>
    <c>NL</c>
    <t>7</t>
    <lat>51.8241653442383</lat>
    <lon>5.79555559158325</lon>
    <Syns>
      <Sy>Dukenburg</Sy>
    </Syns>
  </s>
  <s>
    <name>Nijmegen Goffert</name>
    <id>nmgo</id>
    <c>NL</c>
    <t>7</t>
    <lat>51.8273</lat>
    <lon>5.822722</lon>
    <Syns>
      <Sy>Goffert</Sy>
    </Syns>
  </s>
  <s>
    <name>Nijmegen Heyendaal</name>
    <id>nmh</id>
    <c>NL</c>
    <t>7</t>
    <lat>51.8269462585449</lat>
    <lon>5.86749982833862</lon>
    <Syns>
      <Sy>Heyendaal</Sy>
      <Sy>Nm Heyendaal</Sy>
    </Syns>
  </s>
  <s>
    <name>Nijmegen Lent</name>
    <id>nml</id>
    <c>NL</c>
    <t>7</t>
    <lat>51.861811</lat>
    <lon>5.859686</lon>
    <Syns>
      <Sy>Lent</Sy>
    </Syns>
  </s>
  <s>
    <name>Nijverdal</name>
    <id>nvd</id>
    <c>NL</c>
    <t>7</t>
    <lat>52.36555</lat>
    <lon>6.471111</lon>
    <Syns />
  </s>
  <s>
    <name>Nunspeet</name>
    <id>ns</id>
    <c>NL</c>
    <t>7</t>
    <lat>52.3708343505859</lat>
    <lon>5.78527784347534</lon>
    <Syns />
  </s>
  <s>
    <name>Nuth</name>
    <id>nh</id>
    <c>NL</c>
    <t>7</t>
    <lat>50.9194450378418</lat>
    <lon>5.89277791976929</lon>
    <Syns />
  </s>
  <s>
    <name>Obdam</name>
    <id>obd</id>
    <c>NL</c>
    <t>7</t>
    <lat>52.6780548095703</lat>
    <lon>4.90722227096558</lon>
    <Syns />
  </s>
  <s>
    <name>Oisterwijk</name>
    <id>ot</id>
    <c>NL</c>
    <t>7</t>
    <lat>51.5822219848633</lat>
    <lon>5.19416666030884</lon>
    <Syns />
  </s>
  <s>
    <name>Oldenzaal</name>
    <id>odz</id>
    <c>NL</c>
    <t>7</t>
    <lat>52.3063888549805</lat>
    <lon>6.93472242355347</lon>
    <Syns />
  </s>
  <s>
    <name>Olst</name>
    <id>ost</id>
    <c>NL</c>
    <t>7</t>
    <lat>52.3347206115723</lat>
    <lon>6.11305570602417</lon>
    <Syns />
  </s>
  <s>
    <name>Ommen</name>
    <id>omn</id>
    <c>NL</c>
    <t>4</t>
    <lat>52.5094451904297</lat>
    <lon>6.41583347320557</lon>
    <Syns />
  </s>
  <s>
    <name>Oosterbeek</name>
    <id>otb</id>
    <c>NL</c>
    <t>7</t>
    <lat>51.9949989318848</lat>
    <lon>5.84000015258789</lon>
    <Syns />
  </s>
  <s>
    <name>Opheusden</name>
    <id>op</id>
    <c>NL</c>
    <t>7</t>
    <lat>51.9261615</lat>
    <lon>5.6371145</lon>
    <Syns />
  </s>
  <s>
    <name>Oss</name>
    <id>o</id>
    <c>NL</c>
    <t>2</t>
    <lat>51.7655563354492</lat>
    <lon>5.53222227096558</lon>
    <Syns />
  </s>
  <s>
    <name>Oss West</name>
    <id>ow</id>
    <c>NL</c>
    <t>7</t>
    <lat>51.758056640625</lat>
    <lon>5.50555562973022</lon>
    <Syns />
  </s>
  <s>
    <name>Oudenbosch</name>
    <id>odb</id>
    <c>NL</c>
    <t>7</t>
    <lat>51.587776184082</lat>
    <lon>4.53333330154419</lon>
    <Syns />
  </s>
  <s>
    <name>Overveen</name>
    <id>ovn</id>
    <c>NL</c>
    <t>7</t>
    <lat>52.3911094665527</lat>
    <lon>4.6061110496521</lon>
    <Syns />
  </s>
  <s>
    <name>Purmerend</name>
    <id>pmr</id>
    <c>NL</c>
    <t>6</t>
    <lat>52.5030555725098</lat>
    <lon>4.95361089706421</lon>
    <Syns />
  </s>
  <s>
    <name>Purmerend Overwhere</name>
    <id>pmo</id>
    <c>NL</c>
    <t>7</t>
    <lat>52.5113906860352</lat>
    <lon>4.96833324432373</lon>
    <Syns>
      <Sy>Overwhere</Sy>
    </Syns>
  </s>
  <s>
    <name>Purmerend Weidevenne</name>
    <id>pmw</id>
    <c>NL</c>
    <t>7</t>
    <lat>52.4965906325416</lat>
    <lon>4.93562936782836</lon>
    <Syns>
      <Sy>Weidevenne</Sy>
    </Syns>
  </s>
  <s>
    <name>Putten</name>
    <id>pt</id>
    <c>NL</c>
    <t>7</t>
    <lat>52.2649993896484</lat>
    <lon>5.57527780532837</lon>
    <Syns />
  </s>
  <s>
    <name>Raalte</name>
    <id>rat</id>
    <c>NL</c>
    <t>7</t>
    <lat>52.3916664123535</lat>
    <lon>6.27750015258789</lon>
    <Syns />
  </s>
  <s>
    <name>Ravenstein</name>
    <id>rvs</id>
    <c>NL</c>
    <t>7</t>
    <lat>51.7941665649414</lat>
    <lon>5.63583326339722</lon>
    <Syns />
  </s>
  <s>
    <name>Reuver</name>
    <id>rv</id>
    <c>NL</c>
    <t>7</t>
    <lat>51.2832191665301</lat>
    <lon>6.07895851135253</lon>
    <Syns />
  </s>
  <s>
    <name>Rheden</name>
    <id>rh</id>
    <c>NL</c>
    <t>7</t>
    <lat>52.0099983215332</lat>
    <lon>6.03055572509766</lon>
    <Syns />
  </s>
  <s>
    <name>Rhenen</name>
    <id>rhn</id>
    <c>NL</c>
    <t>6</t>
    <lat>51.958610534668</lat>
    <lon>5.57833337783814</lon>
    <Syns />
  </s>
  <s>
    <name>Rijssen</name>
    <id>rsn</id>
    <c>NL</c>
    <t>7</t>
    <lat>52.3122215270996</lat>
    <lon>6.52027797698975</lon>
    <Syns />
  </s>
  <s>
    <name>Rijswijk</name>
    <id>rsw</id>
    <c>NL</c>
    <t>7</t>
    <lat>52.039722442627</lat>
    <lon>4.31916666030884</lon>
    <Syns />
  </s>
  <s>
    <name>Rilland-Bath</name>
    <id>rb</id>
    <c>NL</c>
    <t>7</t>
    <lat>51.422779083252</lat>
    <lon>4.16111087799072</lon>
    <Syns />
  </s>
  <s>
    <name>Roermond</name>
    <id>rm</id>
    <c>NL</c>
    <t>2</t>
    <lat>51.1930541992188</lat>
    <lon>5.9941668510437</lon>
    <Syns />
  </s>
  <s>
    <name>Roodeschool</name>
    <id>rd</id>
    <c>NL</c>
    <t>7</t>
    <lat>53.4192128</lat>
    <lon>6.7606167</lon>
    <Syns>
      <Sy>Roodeschl</Sy>
    </Syns>
  </s>
  <s>
    <name>Roosendaal</name>
    <id>rsd</id>
    <c>NL</c>
    <t>2</t>
    <lat>51.5402793884277</lat>
    <lon>4.45833349227905</lon>
    <Syns />
  </s>
  <s>
    <name>Rosmalen</name>
    <id>rs</id>
    <c>NL</c>
    <t>7</t>
    <lat>51.7147216796875</lat>
    <lon>5.36805534362793</lon>
    <Syns />
  </s>
  <s>
    <name>Rotterdam Alexander</name>
    <id>rta</id>
    <c>NL</c>
    <t>3</t>
    <lat>51.9519462585449</lat>
    <lon>4.55361127853394</lon>
    <Syns>
      <Sy>Alexander</Sy>
    </Syns>
  </s>
  <s>
    <name>Rotterdam Blaak</name>
    <id>rtb</id>
    <c>NL</c>
    <t>3</t>
    <lat>51.9202766418457</lat>
    <lon>4.48888874053955</lon>
    <Syns>
      <Sy>Blaak</Sy>
    </Syns>
  </s>
  <s>
    <name>Rotterdam Centraal</name>
    <id>rtd</id>
    <c>NL</c>
    <t>1</t>
    <lat>51.9249992370605</lat>
    <lon>4.46888875961304</lon>
    <Syns>
      <Sy>Rotterdam C.</Sy>
    </Syns>
  </s>
  <s>
    <name>Rotterdam Lombardijen</name>
    <id>rlb</id>
    <c>NL</c>
    <t>7</t>
    <lat>51.8800010681152</lat>
    <lon>4.53138875961304</lon>
    <Syns>
      <Sy>Lombardije</Sy>
      <Sy>Lombardijen</Sy>
    </Syns>
  </s>
  <s>
    <name>Rotterdam Noord</name>
    <id>rtn</id>
    <c>NL</c>
    <t>7</t>
    <lat>51.9422225952148</lat>
    <lon>4.48166656494141</lon>
    <Syns>
      <Sy>Rotterdm N</Sy>
    </Syns>
  </s>
  <s>
    <name>Rotterdam Zuid</name>
    <id>rtz</id>
    <c>NL</c>
    <t>7</t>
    <lat>51.9044456481934</lat>
    <lon>4.51027774810791</lon>
    <Syns>
      <Sy>Rotterdm Z</Sy>
    </Syns>
  </s>
  <s>
    <name>Ruurlo</name>
    <id>rl</id>
    <c>NL</c>
    <t>7</t>
    <lat>52.0810888</lat>
    <lon>6.4492656</lon>
    <Syns />
  </s>
  <s>
    <name>Santpoort Noord</name>
    <id>sptn</id>
    <c>NL</c>
    <t>7</t>
    <lat>52.4338874816895</lat>
    <lon>4.63250017166138</lon>
    <Syns>
      <Sy>Santprt N</Sy>
    </Syns>
  </s>
  <s>
    <name>Santpoort Zuid</name>
    <id>sptz</id>
    <c>NL</c>
    <t>7</t>
    <lat>52.4197235107422</lat>
    <lon>4.63138866424561</lon>
    <Syns>
      <Sy>Santprt Z</Sy>
    </Syns>
  </s>
  <s>
    <name>Sappemeer Oost</name>
    <id>spm</id>
    <c>NL</c>
    <t>7</t>
    <lat>53.1589183</lat>
    <lon>6.7955648</lon>
    <Syns>
      <Sy>Sappemr O</Sy>
    </Syns>
  </s>
  <s>
    <name>Sassenheim</name>
    <id>ssh</id>
    <c>NL</c>
    <t>7</t>
    <lat>52.215278</lat>
    <lon>4.517222</lon>
    <Syns />
  </s>
  <s>
    <name>Sauwerd</name>
    <id>swd</id>
    <c>NL</c>
    <t>7</t>
    <lat>53.29113</lat>
    <lon>6.5404</lon>
    <Syns />
  </s>
  <s>
    <name>Schagen</name>
    <id>sgn</id>
    <c>NL</c>
    <t>7</t>
    <lat>52.7844429016113</lat>
    <lon>4.80527782440186</lon>
    <Syns />
  </s>
  <s>
    <name>Scheemda</name>
    <id>sda</id>
    <c>NL</c>
    <t>7</t>
    <lat>53.1655362</lat>
    <lon>6.9777775</lon>
    <Syns />
  </s>
  <s>
    <name>Schiedam Centrum</name>
    <id>sdm</id>
    <c>NL</c>
    <t>3</t>
    <lat>51.9212438128032</lat>
    <lon>4.4089937210083</lon>
    <Syns>
      <Sy>Schiedam C.</Sy>
    </Syns>
  </s>
  <s>
    <name>Schiedam Nieuwland</name>
    <id>nwl</id>
    <c>NL</c>
    <t>7</t>
    <lat>51.9222221374512</lat>
    <lon>4.38222217559814</lon>
    <Syns>
      <Sy>Nieuwland</Sy>
    </Syns>
  </s>
  <s>
    <name>Schin op Geul</name>
    <id>sog</id>
    <c>NL</c>
    <t>7</t>
    <lat>50.856388092041</lat>
    <lon>5.87222242355347</lon>
    <Syns />
  </s>
  <s>
    <name>Schinnen</name>
    <id>sn</id>
    <c>NL</c>
    <t>7</t>
    <lat>50.9391670227051</lat>
    <lon>5.87444448471069</lon>
    <Syns />
  </s>
  <s>
    <name>Schiphol Airport</name>
    <id>shl</id>
    <c>NL</c>
    <t>1</t>
    <lat>52.3094444274902</lat>
    <lon>4.76194429397583</lon>
    <Syns>
      <Sy>Amsterdam Airport</Sy>
    </Syns>
  </s>
  <s>
    <name>Sittard</name>
    <id>std</id>
    <c>NL</c>
    <t>2</t>
    <lat>51.0016670227051</lat>
    <lon>5.85861110687256</lon>
    <Syns />
  </s>
  <s>
    <name>Sliedrecht</name>
    <id>sdt</id>
    <c>NL</c>
    <t>7</t>
    <lat>51.8297233581543</lat>
    <lon>4.77833318710327</lon>
    <Syns />
  </s>
  <s>
    <name>Sliedrecht Baanhoek</name>
    <id>sdtb</id>
    <c>NL</c>
    <t>7</t>
    <lat>51.829722</lat>
    <lon>4.743333</lon>
    <Syns>
      <Sy>Baanhoek</Sy>
    </Syns>
  </s>
  <s>
    <name>Sneek</name>
    <id>sk</id>
    <c>NL</c>
    <t>6</t>
    <lat>53.0328688</lat>
    <lon>5.6523969</lon>
    <Syns />
  </s>
  <s>
    <name>Sneek Noord</name>
    <id>sknd</id>
    <c>NL</c>
    <t>7</t>
    <lat>53.0409319</lat>
    <lon>5.6631808</lon>
    <Syns />
  </s>
  <s>
    <name>Soest</name>
    <id>st</id>
    <c>NL</c>
    <t>6</t>
    <lat>52.1733322143555</lat>
    <lon>5.30999994277954</lon>
    <Syns />
  </s>
  <s>
    <name>Soest Zuid</name>
    <id>stz</id>
    <c>NL</c>
    <t>7</t>
    <lat>52.1652793884277</lat>
    <lon>5.30305576324463</lon>
    <Syns />
  </s>
  <s>
    <name>Soestdijk</name>
    <id>sd</id>
    <c>NL</c>
    <t>7</t>
    <lat>52.1836128234863</lat>
    <lon>5.30000019073486</lon>
    <Syns />
  </s>
  <s>
    <name>Spaubeek</name>
    <id>sbk</id>
    <c>NL</c>
    <t>7</t>
    <lat>50.94327</lat>
    <lon>5.850529</lon>
    <Syns />
  </s>
  <s>
    <name>Stavoren</name>
    <id>stv</id>
    <c>NL</c>
    <t>7</t>
    <lat>52.8865535</lat>
    <lon>5.3600212</lon>
    <Syns />
  </s>
  <s>
    <name>Stedum</name>
    <id>stm</id>
    <c>NL</c>
    <t>7</t>
    <lat>53.3262092</lat>
    <lon>6.6875551</lon>
    <Syns />
  </s>
  <s>
    <name>Steenwijk</name>
    <id>swk</id>
    <c>NL</c>
    <t>3</t>
    <lat>52.7915109924316</lat>
    <lon>6.11455576324463</lon>
    <Syns />
  </s>
  <s>
    <name>Susteren</name>
    <id>srn</id>
    <c>NL</c>
    <t>7</t>
    <lat>51.0613899230957</lat>
    <lon>5.86305570602417</lon>
    <Syns />
  </s>
  <s>
    <name>Swalmen</name>
    <id>sm</id>
    <c>NL</c>
    <t>7</t>
    <lat>51.23582</lat>
    <lon>6.03228</lon>
    <Syns />
  </s>
  <s>
    <name>Tegelen</name>
    <id>tg</id>
    <c>NL</c>
    <t>7</t>
    <lat>51.33894</lat>
    <lon>6.14253</lon>
    <Syns />
  </s>
  <s>
    <name>Terborg</name>
    <id>tbg</id>
    <c>NL</c>
    <t>7</t>
    <lat>51.9224549</lat>
    <lon>6.3642466</lon>
    <Syns />
  </s>
  <s>
    <name>Tiel</name>
    <id>tl</id>
    <c>NL</c>
    <t>6</t>
    <lat>51.8894462585449</lat>
    <lon>5.42222213745117</lon>
    <Syns />
  </s>
  <s>
    <name>Tiel Passewaaij</name>
    <id>tpsw</id>
    <c>NL</c>
    <t>7</t>
    <lat>51.8738899230957</lat>
    <lon>5.39222240447998</lon>
    <Syns>
      <Sy>Passewaaij</Sy>
    </Syns>
  </s>
  <s>
    <name>Tilburg</name>
    <id>tb</id>
    <c>NL</c>
    <t>2</t>
    <lat>51.5605545043945</lat>
    <lon>5.08361101150513</lon>
    <Syns />
  </s>
  <s>
    <name>Tilburg Reeshof</name>
    <id>tbr</id>
    <c>NL</c>
    <t>7</t>
    <lat>51.5736122131348</lat>
    <lon>4.99444437026978</lon>
    <Syns>
      <Sy>Reeshof</Sy>
    </Syns>
  </s>
  <s>
    <name>Tilburg Universiteit</name>
    <id>tbu</id>
    <c>NL</c>
    <t>7</t>
    <lat>51.564998626709</lat>
    <lon>5.05111122131348</lon>
    <Syns>
      <Sy>Tilburg Univers.</Sy>
    </Syns>
  </s>
  <s>
    <name>Twello</name>
    <id>twl</id>
    <c>NL</c>
    <t>7</t>
    <lat>52.2377777099609</lat>
    <lon>6.09861087799072</lon>
    <Syns />
  </s>
  <s>
    <name>Uitgeest</name>
    <id>utg</id>
    <c>NL</c>
    <t>6</t>
    <lat>52.5216674804687</lat>
    <lon>4.70166683197022</lon>
    <Syns />
  </s>
  <s>
    <name>Uithuizen</name>
    <id>uhz</id>
    <c>NL</c>
    <t>7</t>
    <lat>53.4099568</lat>
    <lon>6.6748869</lon>
    <Syns />
  </s>
  <s>
    <name>Uithuizermeeden</name>
    <id>uhm</id>
    <c>NL</c>
    <t>7</t>
    <lat>53.4145845</lat>
    <lon>6.7202975</lon>
    <Syns />
  </s>
  <s>
    <name>Usquert</name>
    <id>ust</id>
    <c>NL</c>
    <t>7</t>
    <lat>53.4014742</lat>
    <lon>6.6093776</lon>
    <Syns />
  </s>
  <s>
    <name>Utrecht Centraal</name>
    <id>ut</id>
    <c>NL</c>
    <t>1</t>
    <lat>52.0888900756836</lat>
    <lon>5.11027765274048</lon>
    <Syns>
      <Sy>Utrecht C.</Sy>
    </Syns>
  </s>
  <s>
    <name>Utrecht Leidsche Rijn</name>
    <id>utlr</id>
    <c>NL</c>
    <t>7</t>
    <lat>52.09896</lat>
    <lon>5.06523</lon>
    <Syns>
      <Sy>LeidscheRn</Sy>
      <Sy>Leidsche Rijn</Sy>
    </Syns>
  </s>
  <s>
    <name>Utrecht Lunetten</name>
    <id>utln</id>
    <c>NL</c>
    <t>7</t>
    <lat>52.0655555725098</lat>
    <lon>5.14416646957397</lon>
    <Syns>
      <Sy>Lunetten</Sy>
    </Syns>
  </s>
  <s>
    <name>Utrecht Maliebaan</name>
    <id>utm</id>
    <c>NL</c>
    <t>7</t>
    <lat>52.087776184082</lat>
    <lon>5.13138866424561</lon>
    <Syns>
      <Sy>Spoorwegmuseum</Sy>
      <Sy>Maliebaan</Sy>
    </Syns>
  </s>
  <s>
    <name>Utrecht Overvecht</name>
    <id>uto</id>
    <c>NL</c>
    <t>6</t>
    <lat>52.1100006103516</lat>
    <lon>5.12472200393677</lon>
    <Syns>
      <Sy>Overvecht</Sy>
    </Syns>
  </s>
  <s>
    <name>Utrecht Terwijde</name>
    <id>utt</id>
    <c>NL</c>
    <t>7</t>
    <lat>52.1005554199219</lat>
    <lon>5.04166650772095</lon>
    <Syns>
      <Sy>Terwijde</Sy>
    </Syns>
  </s>
  <s>
    <name>Utrecht Vaartsche Rijn</name>
    <id>utvr</id>
    <c>NL</c>
    <t>7</t>
    <lat>52.078889</lat>
    <lon>5.121667</lon>
    <Syns>
      <Sy>VaartscheR</Sy>
      <Sy>Vaartsche Rijn</Sy>
    </Syns>
  </s>
  <s>
    <name>Utrecht Zuilen</name>
    <id>utzl</id>
    <c>NL</c>
    <t>7</t>
    <lat>52.103055</lat>
    <lon>5.09</lon>
    <Syns>
      <Sy>Zuilen</Sy>
    </Syns>
  </s>
  <s>
    <name>Valkenburg</name>
    <id>vk</id>
    <c>NL</c>
    <t>4</t>
    <lat>50.8697204589844</lat>
    <lon>5.83222198486328</lon>
    <Syns />
  </s>
  <s>
    <name>Varsseveld</name>
    <id>vsv</id>
    <c>NL</c>
    <t>7</t>
    <lat>51.937257</lat>
    <lon>6.458839</lon>
    <Syns />
  </s>
  <s>
    <name>Veendam</name>
    <id>vdm</id>
    <c>NL</c>
    <t>6</t>
    <lat>53.10324</lat>
    <lon>6.88475</lon>
    <Syns />
  </s>
  <s>
    <name>Veenendaal Centrum</name>
    <id>vndc</id>
    <c>NL</c>
    <t>6</t>
    <lat>52.0200004577637</lat>
    <lon>5.54861116409302</lon>
    <Syns>
      <Sy>Veenendl C</Sy>
      <Sy>Veenendaal C.</Sy>
    </Syns>
  </s>
  <s>
    <name>Veenendaal West</name>
    <id>vndw</id>
    <c>NL</c>
    <t>7</t>
    <lat>52.0280570983887</lat>
    <lon>5.53138875961304</lon>
    <Syns>
      <Sy>Veenendl W</Sy>
    </Syns>
  </s>
  <s>
    <name>Veenendaal-De Klomp</name>
    <id>klp</id>
    <c>NL</c>
    <t>7</t>
    <lat>52.0458335876465</lat>
    <lon>5.57388877868652</lon>
    <Syns>
      <Sy>De Klomp</Sy>
    </Syns>
  </s>
  <s>
    <name>Velp</name>
    <id>vp</id>
    <c>NL</c>
    <t>7</t>
    <lat>51.9947204589844</lat>
    <lon>5.98027801513672</lon>
    <Syns />
  </s>
  <s>
    <name>Venlo</name>
    <id>vl</id>
    <c>NL</c>
    <t>2</t>
    <lat>51.3636093139648</lat>
    <lon>6.17277765274048</lon>
    <Syns />
  </s>
  <s>
    <name>Venray</name>
    <id>vry</id>
    <c>NL</c>
    <t>6</t>
    <lat>51.526568099007</lat>
    <lon>6.01417779922485</lon>
    <Syns />
  </s>
  <s>
    <name>Vierlingsbeek</name>
    <id>vlb</id>
    <c>NL</c>
    <t>7</t>
    <lat>51.59193</lat>
    <lon>5.99714</lon>
    <Syns />
  </s>
  <s>
    <name>Vlaardingen Centrum</name>
    <id>vdg</id>
    <c>NL</c>
    <t>6</t>
    <lat>51.9030570983887</lat>
    <lon>4.34416675567627</lon>
    <Syns>
      <Sy>Vlaard C</Sy>
      <Sy>Vlaardingen C.</Sy>
    </Syns>
  </s>
  <s>
    <name>Vlaardingen Oost</name>
    <id>vdo</id>
    <c>NL</c>
    <t>7</t>
    <lat>51.9102783203125</lat>
    <lon>4.36166667938232</lon>
    <Syns>
      <Sy>Vlaard O</Sy>
    </Syns>
  </s>
  <s>
    <name>Vlaardingen West</name>
    <id>vdw</id>
    <c>NL</c>
    <t>7</t>
    <lat>51.904167175293</lat>
    <lon>4.31305551528931</lon>
    <Syns>
      <Sy>Vlaard W</Sy>
    </Syns>
  </s>
  <s>
    <name>Vleuten</name>
    <id>vtn</id>
    <c>NL</c>
    <t>7</t>
    <lat>52.1030540466309</lat>
    <lon>5.01083326339722</lon>
    <Syns />
  </s>
  <s>
    <name>Vlissingen</name>
    <id>vs</id>
    <c>NL</c>
    <t>2</t>
    <lat>51.4458351135254</lat>
    <lon>3.59527778625488</lon>
    <Syns />
  </s>
  <s>
    <name>Vlissingen Souburg</name>
    <id>vss</id>
    <c>NL</c>
    <t>7</t>
    <lat>51.4647216796875</lat>
    <lon>3.59527778625488</lon>
    <Syns>
      <Sy>Souburg</Sy>
    </Syns>
  </s>
  <s>
    <name>Voerendaal</name>
    <id>vdl</id>
    <c>NL</c>
    <t>7</t>
    <lat>50.8872222900391</lat>
    <lon>5.93027782440186</lon>
    <Syns />
  </s>
  <s>
    <name>Voorburg</name>
    <id>vb</id>
    <c>NL</c>
    <t>7</t>
    <lat>52.0666656494141</lat>
    <lon>4.3594446182251</lon>
    <Syns />
  </s>
  <s>
    <name>Voorhout</name>
    <id>vh</id>
    <c>NL</c>
    <t>7</t>
    <lat>52.2244453430176</lat>
    <lon>4.4844446182251</lon>
    <Syns />
  </s>
  <s>
    <name>Voorschoten</name>
    <id>vst</id>
    <c>NL</c>
    <t>7</t>
    <lat>52.1252784729004</lat>
    <lon>4.43249988555908</lon>
    <Syns>
      <Sy>Voorschtn</Sy>
    </Syns>
  </s>
  <s>
    <name>Voorst-Empe</name>
    <id>vem</id>
    <c>NL</c>
    <t>7</t>
    <lat>52.1575012207031</lat>
    <lon>6.14361095428467</lon>
    <Syns />
  </s>
  <s>
    <name>Vorden</name>
    <id>vd</id>
    <c>NL</c>
    <t>7</t>
    <lat>52.1071949</lat>
    <lon>6.3170457</lon>
    <Syns />
  </s>
  <s>
    <name>Vriezenveen</name>
    <id>vz</id>
    <c>NL</c>
    <t>7</t>
    <lat>52.40203</lat>
    <lon>6.60041</lon>
    <Syns>
      <Sy>Vriezenvn</Sy>
    </Syns>
  </s>
  <s>
    <name>Vroomshoop</name>
    <id>vhp</id>
    <c>NL</c>
    <t>7</t>
    <lat>52.4571921</lat>
    <lon>6.5696679</lon>
    <Syns />
  </s>
  <s>
    <name>Vught</name>
    <id>vg</id>
    <c>NL</c>
    <t>7</t>
    <lat>51.6555557250977</lat>
    <lon>5.29194450378418</lon>
    <Syns />
  </s>
  <s>
    <name>Waddinxveen</name>
    <id>wad</id>
    <c>NL</c>
    <t>7</t>
    <lat>52.0441665649414</lat>
    <lon>4.6497220993042</lon>
    <Syns>
      <Sy>Waddinxvn</Sy>
    </Syns>
  </s>
  <s>
    <name>Waddinxveen Noord</name>
    <id>wadn</id>
    <c>NL</c>
    <t>7</t>
    <lat>52.0550003051758</lat>
    <lon>4.64833354949951</lon>
    <Syns>
      <Sy>Waddinxv N</Sy>
      <Sy>Waddinxveen N.</Sy>
    </Syns>
  </s>
  <s>
    <name>Warffum</name>
    <id>wfm</id>
    <c>NL</c>
    <t>7</t>
    <lat>53.3908431</lat>
    <lon>6.5671364</lon>
    <Syns />
  </s>
  <s>
    <name>Weert</name>
    <id>wt</id>
    <c>NL</c>
    <t>3</t>
    <lat>51.2486114501953</lat>
    <lon>5.70361089706421</lon>
    <Syns />
  </s>
  <s>
    <name>Weesp</name>
    <id>wp</id>
    <c>NL</c>
    <t>6</t>
    <lat>52.3127784729004</lat>
    <lon>5.04305553436279</lon>
    <Syns />
  </s>
  <s>
    <name>Wehl</name>
    <id>wl</id>
    <c>NL</c>
    <t>7</t>
    <lat>51.9578065</lat>
    <lon>6.213844</lon>
    <Syns />
  </s>
  <s>
    <name>Westervoort</name>
    <id>wtv</id>
    <c>NL</c>
    <t>7</t>
    <lat>51.96286</lat>
    <lon>5.9695</lon>
    <Syns>
      <Sy>Westervrt</Sy>
    </Syns>
  </s>
  <s>
    <name>Wezep</name>
    <id>wz</id>
    <c>NL</c>
    <t>7</t>
    <lat>52.4541664123535</lat>
    <lon>6.00250005722046</lon>
    <Syns />
  </s>
  <s>
    <name>Wierden</name>
    <id>wdn</id>
    <c>NL</c>
    <t>6</t>
    <lat>52.3613891601562</lat>
    <lon>6.59166669845581</lon>
    <Syns />
  </s>
  <s>
    <name>Wijchen</name>
    <id>wc</id>
    <c>NL</c>
    <t>7</t>
    <lat>51.8116683959961</lat>
    <lon>5.73083353042603</lon>
    <Syns />
  </s>
  <s>
    <name>Wijhe</name>
    <id>wh</id>
    <c>NL</c>
    <t>7</t>
    <lat>52.3902778625488</lat>
    <lon>6.1405553817749</lon>
    <Syns />
  </s>
  <s>
    <name>Winschoten</name>
    <id>ws</id>
    <c>NL</c>
    <t>6</t>
    <lat>53.1392377</lat>
    <lon>7.035101</lon>
    <Syns />
  </s>
  <s>
    <name>Winsum</name>
    <id>wsm</id>
    <c>NL</c>
    <t>7</t>
    <lat>53.3300994</lat>
    <lon>6.5202905</lon>
    <Syns />
  </s>
  <s>
    <name>Winterswijk</name>
    <id>ww</id>
    <c>NL</c>
    <t>6</t>
    <lat>51.9677307</lat>
    <lon>6.7155181</lon>
    <Syns>
      <Sy>Winterswk</Sy>
    </Syns>
  </s>
  <s>
    <name>Winterswijk West</name>
    <id>www</id>
    <c>NL</c>
    <t>7</t>
    <lat>51.97453</lat>
    <lon>6.70417</lon>
    <Syns>
      <Sy>Wintersw W</Sy>
    </Syns>
  </s>
  <s>
    <name>Woerden</name>
    <id>wd</id>
    <c>NL</c>
    <t>6</t>
    <lat>52.0849990844727</lat>
    <lon>4.89361095428467</lon>
    <Syns />
  </s>
  <s>
    <name>Wolfheze</name>
    <id>wf</id>
    <c>NL</c>
    <t>7</t>
    <lat>52.0055541992188</lat>
    <lon>5.7936110496521</lon>
    <Syns />
  </s>
  <s>
    <name>Wolvega</name>
    <id>wv</id>
    <c>NL</c>
    <t>7</t>
    <lat>52.8808326721191</lat>
    <lon>6.00361108779907</lon>
    <Syns />
  </s>
  <s>
    <name>Workum</name>
    <id>wk</id>
    <c>NL</c>
    <t>7</t>
    <lat>52.9724864</lat>
    <lon>5.4564285</lon>
    <Syns />
  </s>
  <s>
    <name>Wormerveer</name>
    <id>wm</id>
    <c>NL</c>
    <t>7</t>
    <lat>52.4891662597656</lat>
    <lon>4.79222202301025</lon>
    <Syns />
  </s>
  <s>
    <name>Zaandam</name>
    <id>zd</id>
    <c>NL</c>
    <t>2</t>
    <lat>52.4388885498047</lat>
    <lon>4.81361103057861</lon>
    <Syns />
  </s>
  <s>
    <name>Zaandam Kogerveld</name>
    <id>zdk</id>
    <c>NL</c>
    <t>7</t>
    <lat>52.4566650390625</lat>
    <lon>4.82027769088745</lon>
    <Syns>
      <Sy>Kogerveld</Sy>
    </Syns>
  </s>
  <s>
    <name>Zaltbommel</name>
    <id>zbm</id>
    <c>NL</c>
    <t>7</t>
    <lat>51.8088874816895</lat>
    <lon>5.26333332061768</lon>
    <Syns />
  </s>
  <s>
    <name>Zandvoort aan Zee</name>
    <id>zvt</id>
    <c>NL</c>
    <t>7</t>
    <lat>52.3752784729004</lat>
    <lon>4.53277778625488</lon>
    <Syns>
      <Sy>Zandvoort a Zee</Sy>
    </Syns>
  </s>
  <s>
    <name>Zetten-Andelst</name>
    <id>za</id>
    <c>NL</c>
    <t>7</t>
    <lat>51.920056</lat>
    <lon>5.7228408</lon>
    <Syns />
  </s>
  <s>
    <name>Zevenaar</name>
    <id>zv</id>
    <c>NL</c>
    <t>6</t>
    <lat>51.9230537414551</lat>
    <lon>6.07194423675537</lon>
    <Syns />
  </s>
  <s>
    <name>Zevenbergen</name>
    <id>zvb</id>
    <c>NL</c>
    <t>7</t>
    <lat>51.64042</lat>
    <lon>4.60904</lon>
    <Syns>
      <Sy>Zevenbergn</Sy>
    </Syns>
  </s>
  <s>
    <name>Zoetermeer</name>
    <id>ztm</id>
    <c>NL</c>
    <t>6</t>
    <lat>52.0475006103516</lat>
    <lon>4.47722244262695</lon>
    <Syns />
  </s>
  <s>
    <name>Zoetermeer Oost</name>
    <id>ztmo</id>
    <c>NL</c>
    <t>7</t>
    <lat>52.0463905334473</lat>
    <lon>4.49277782440186</lon>
    <Syns>
      <Sy>Zoetermr O</Sy>
    </Syns>
  </s>
  <s>
    <name>Zuidbroek</name>
    <id>zb</id>
    <c>NL</c>
    <t>6</t>
    <lat>53.1596122800056</lat>
    <lon>6.8679141998291</lon>
    <Syns />
  </s>
  <s>
    <name>Zuidhorn</name>
    <id>zh</id>
    <c>NL</c>
    <t>7</t>
    <lat>53.2486292</lat>
    <lon>6.4062361</lon>
    <Syns />
  </s>
  <s>
    <name>Zutphen</name>
    <id>zp</id>
    <c>NL</c>
    <t>2</t>
    <lat>52.1452789306641</lat>
    <lon>6.19416666030884</lon>
    <Syns />
  </s>
  <s>
    <name>Zwijndrecht</name>
    <id>zwd</id>
    <c>NL</c>
    <t>7</t>
    <lat>51.814998626709</lat>
    <lon>4.64166688919067</lon>
    <Syns>
      <Sy>Zwijndrcht</Sy>
    </Syns>
  </s>
  <s>
    <name>Zwolle</name>
    <id>zl</id>
    <c>NL</c>
    <t>2</t>
    <lat>52.5047225952148</lat>
    <lon>6.09194421768188</lon>
    <Syns />
  </s>
</sts>